id,feature_type,name,latitude,longitude
249132373,hospital,"Paras Hospital, Gurgaon",28.4509689,77.0875533
266376018,road,Entry 12,28.4482482,77.0383288
266378530,school,Heritage International School,28.5084497,77.166546
266378545,school,Deep Public School,28.5117155,77.1634819
266535263,hospital,Max Hospital,28.462841,77.0759312
266585960,road,Shyam Chowk,28.4957101,77.0860672
266773900,road,Entry 8,28.448506,77.0388528
266773981,road,Exit 10,28.4475682,77.0380191
267125891,road,Entry 4,28.4933589,77.0844686
268432069,road,Entry 4,28.4932964,77.0842347
268905715,road,Entry 13,28.4556545,77.0453846
268905716,road,Exit 9,28.4547723,77.0447524
268905717,road,Exit 15,28.457069,77.0467425
268905721,road,Entry 7,28.456526,77.0464538
268905722,road,Exit 16,28.4654168,77.0547013
268919702,road,Exit 8,28.4617194,77.0514472
269101499,road,Exit,28.4489512,77.0389655
270624144,road,Unnamed road,28.4323274,77.0073195
271335768,school,Unnamed school,28.4896385,77.1384019
271373907,road,Unnamed road,28.5432203,77.1186293
273456822,road,Entry 6,28.4647531,77.0543743
277419932,road,Unnamed road,28.5805598,77.269647
278163583,road,Unnamed road,28.5732042,77.1383852
278166517,road,Entry 11,28.4391803,77.0126649
278166531,road,Unnamed road,28.439527,77.0131293
300138103,hospital,Prakash Hospital Pvt Ltd,28.5854878,77.3494026
312101676,school,"Delhi Public School, Primary Section",28.4295352,77.0525305
312101690,school,CR Model Public School,28.4463106,77.0458728
315999106,road,Unnamed road,28.5732369,77.305945
315999134,road,Unnamed road,28.5725485,77.3095342
316066140,road,Unnamed road,28.5706024,77.2080052
320917729,road,Unnamed road,28.4066425,76.9906131
335970186,school,Salvan Public School,28.4636101,77.0465147
345576017,road,Palam,28.5678347,77.134073
414735815,hospital,Pushpanjali Hospital,28.4508125,77.0328448
427851157,road,Unnamed road,28.7201587,77.2216547
427851350,road,Unnamed road,28.7378537,77.1631439
464964093,road,Sarita Vihar,28.5365216,77.2845972
482664044,school,Stones2milestones,28.4539934,77.0783203
549750152,road,Moti Bagh Flyover,28.5786023,77.1760284
563097440,road,AIIMS Flyover,28.5692697,77.207896
563097603,road,AIIMS Flyover,28.5702462,77.2098095
632050626,hospital,Base Hospital Delhi Cantt,28.6082403,77.1366732
709795355,school,Government Boys and Girls Senior Secondary School,28.6114104,76.9877135
762031713,hospital,Saint soham hospital private,28.7983668,77.0352715
762031718,hospital,Dr. Indra Hospital,28.7980095,77.0354003
762031725,hospital,Dr. Rajeev Hospital,28.8006984,77.0353788
762031788,hospital,Bawana Dispensary,28.8012625,77.0374388
762031791,school,Government(Bada school),28.7946905,77.0372885
799241980,road,Unnamed road,28.5540336,77.3276839
802981464,road,Unnamed road,28.5558635,77.3257393
802981515,road,Unnamed road,28.5564547,77.3247631
838835408,road,Unnamed road,28.5956895,77.2562572
849943556,road,Unnamed road,28.582023,77.3027797
883881204,school,Unnamed school,28.5962679,77.177701
903737922,road,Unnamed road,28.6285305,77.3209647
906856424,road,Unnamed road,28.6284511,77.2745464
906856457,road,Unnamed road,28.6282357,77.2719305
906856488,road,Unnamed road,28.6282244,77.266805
913486529,road,Unnamed road,28.7366877,77.1596595
913486551,road,Unnamed road,28.7357426,77.15713
913486836,road,Unnamed road,28.7340053,77.1545039
913487025,road,Unnamed road,28.7331068,77.1529244
913535113,road,Unnamed road,28.69084,77.0973734
915274461,road,Unnamed road,28.6507654,77.1247322
915724540,hospital,Kailash Hospital & Heart Institute,28.577404,77.3314139
928491343,hospital,Delhi Heart and Lung Institute Super Speciality Hospital,28.6416777,77.2052683
938534485,road,Yamuna Bazar,28.6620047,77.2393813
939235096,hospital,Indraprastha Apollo Hospital,28.5408389,77.2834999
944889293,road,Unnamed road,28.5793538,77.293303
944889399,road,Unnamed road,28.6280586,77.2711114
949747376,road,Exit 21,28.5392885,77.1165776
992920693,hospital,Ayushman Hospital,28.5965201,77.0493833
995630812,hospital,Govt Dispensory,28.5866431,77.0573761
1014267009,hospital,Ayurvedic Mental Hospital,28.7237864,77.1497987
1116432336,school,Govt. Girls Senior Secondary School,28.573859,77.1842457
1116433509,school,DPS International School,28.5697886,77.1783234
1116434111,school,Jose Martin Sarvodya Vidyalya,28.5712962,77.1781517
1135148185,hospital,Sukhda Hospital,28.5469254,77.2445375
1305481210,hospital,Ram Lal Kundan Lal Orthopaedic Hospital,28.6179569,77.2866841
1305488151,hospital,Dr. Shyama Prasad Mukherjee Chest Hospital,28.6140205,77.2898985
1355998753,hospital,"Yashoda Super Speciality Hospital, Anand Vihar",28.6450931,77.3287535
1356119860,road,Unnamed road,28.5818237,77.3027186
1363453179,school,"NIIT - New Friends Colony, South Delhi",28.5603226,77.2667188
1371226158,hospital,Sitaram Bhartia,28.4675077,77.0824741
1373657269,school,Unnamed school,28.4616751,77.0787484
1374470984,school,Sumermal Jain Public School,28.6300965,77.0940113
1384029750,school,American Montessori,28.4850535,77.080977
1390067640,school,Kamla International,28.418088,77.0612
1414804440,school,Ratan Devi Girls Senior Sec. School,28.6614428,77.2799953
1420745420,school,St. Angels (Jr),28.4469205,77.0651743
1420745423,school,St. Angels (Sr),28.4419185,77.0695058
1528713073,hospital,Sujan Mohinder Singh Hospital,28.5629027,77.2685753
1643999814,school,"Delhi Public School, Dwarka",28.6059739,77.0479506
1764307594,school,Holy Cross School,28.6147687,76.9811687
1772537472,school,Unnamed school,28.6182087,76.9837474
1777019272,school,Krishna Model School,28.6060798,76.985117
1810006797,school,Mitraon Govt School,28.6067575,76.9396906
1810981109,school,Ujwa Govt School,28.5704851,76.9036618
1810984760,school,Govt Primary School Malik Pur,28.551102,76.8999464
1811065365,school,Govt Primary School DaryaPur,28.552763,76.9075424
1811342226,hospital,PHC Ujjwa,28.5702527,76.9041305
1813898671,school,Govt Senior Secondary School,28.6024715,76.9317444
1819107639,road,Unnamed road,28.5820525,77.258684
1825166769,road,Unnamed road,28.7020192,77.1053849
1827509706,hospital,NMC Hospital,28.5729253,77.3402993
1827531816,school,Kendriya Vidhyalya,28.6826588,77.1578285
1849498487,school,New Ideal Public School,28.5467878,77.2921488
1855407953,school,Jai Bharti Public School,28.5464998,77.2925361
1855425194,school,Disha Public School,28.5480622,77.2929511
1855425196,school,Jasola Public School,28.5483522,77.2930513
1855425197,school,MCD Public School,28.5482349,77.2940566
1863231062,road,Unnamed road,28.648451,77.2531101
1863231161,road,Unnamed road,28.6501603,77.2523067
1863231347,road,Unnamed road,28.6522896,77.2507358
1863231563,road,Unnamed road,28.6550486,77.2492241
1987285418,road,Unnamed road,28.5552885,77.3263309
2008570191,road,Unnamed road,28.526283,77.1014815
2018206536,road,Sarita Vihar,28.534671,77.285799
2018206551,road,Unnamed road,28.5351156,77.2838669
2019345544,school,Bharat Vasisht Vidya Mandir,28.4717157,77.1285742
2084317885,hospital,Bhardwaj Hospital,28.5660388,77.3355783
2127415678,road,Unnamed road,28.5870265,77.2437647
2129418449,road,Unnamed road,28.5518637,77.0535652
2136085543,road,Unnamed road,28.5903318,77.0825164
2318172256,hospital,Goyal MRI & Diagnostic Centre,28.5647144,77.1893283
2384623590,school,Cambridge Primary School,28.5662292,77.2746488
2408446930,school,Delhi International School,28.5642198,77.0578228
2408447122,school,Paramount International School,28.5637249,77.0574223
2408447131,school,Basava International School,28.5648745,77.055416
2408447150,school,The Indian Heights School,28.5618483,77.0527569
2408447819,school,Mount Carmel,28.560653,77.0586025
2429361211,hospital,MGS Hospital,28.6739027,77.1346394
2429361264,hospital,Maharaja Agrasen Hospital,28.6740586,77.1340566
2440643098,school,Guru Nanak Public School,28.6699013,77.1326211
2440648765,school,S M Arya Public School,28.6721011,77.1337166
2443178755,school,SD Public School,28.6677379,77.1393322
2445479220,hospital,A One Hospital,28.67882,77.0981158
2445809013,school,Vishal Bharti Public School,28.6776074,77.1002235
2445867146,school,St. Nirankari Public School,28.676031,77.1072725
2445867811,school,Rajkiya Pratibha Vikas Vidyalaya,28.6757409,77.1066654
2445868970,school,Sarvodaya Vidyalaya,28.6750003,77.1058706
2445913262,school,Government Higher Secondary School,28.6739957,77.1271291
2445937588,school,Sarvodaya Co-Educational School,28.6692325,77.1497669
2445989850,school,Government Senior Secondary School,28.6535437,77.1658655
2445989851,school,Sarvodaya Kanya Vidyalaya,28.652348,77.1655973
2445991452,school,Govt. Boys HB School,28.6541792,77.1660801
2445992231,school,DAV School,28.6471225,77.1680059
2446000268,school,Vidya Bhawan Senior Secondary School,28.6387283,77.1763691
2446002922,school,Sindhi Higher Secondary School,28.6357621,77.1778604
2446006348,school,Manav Sthali School,28.6352772,77.1782466
2446006877,school,Andh Kanya Vidyalaya,28.6368309,77.1803119
2446009092,school,DI Khan Bharati Sabha Higher Secondary School,28.6307618,77.1795502
2446009093,school,Bapu Adarsh Vidyalaya,28.6306394,77.1804675
2446010483,school,Swami Dayanand Govt. Sarvodaya Vidyalaya,28.6397954,77.1856155
2446010582,school,GD Salwan Public School,28.6403133,77.1858677
2636251473,road,Unnamed road,28.5357898,77.2860412
2636288027,road,Unnamed road,28.5361166,77.2862918
2774809992,road,Unnamed road,28.4808993,77.0720808
2801370105,school,Don Bosco School,28.5285072,77.2473321
2833952245,school,M B Boys School,28.6350118,77.2002755
2885181536,hospital,Majeedia Hospital,28.5148169,77.2518253
2906769891,school,govt sec school,28.4618627,77.0327425
2922268001,school,Sarvodaya Kanya Senior Secondary School,28.6896388,77.1560501
2936644341,road,Unnamed road,28.710514,77.2270902
3008663907,school,HIRA YOGA TRAINING KENDER,28.7551761,77.1344924
3067834623,hospital,Somdatt Medical,28.6293605,77.276622
3265210135,hospital,Krypton Global Health,28.638646,77.0732307
3401875015,hospital,Prime Hospital & Ortho Centre,28.4447109,77.3185979
3488315228,school,Unnamed school,28.6927134,77.1114558
3626040478,school,Sahoday Senior Secondary School,28.5526424,77.2002206
3735984754,road,Unnamed road,28.5141477,77.2973166
3841328720,school,St. Peters School,28.4139784,77.3139529
3947460096,hospital,Surbhi hospital,28.6491348,77.2164415
3954631321,hospital,Tamish,28.699593,77.1045409
4047437964,school,Delhi Public School,28.5386253,77.1479893
4055951152,road,Unnamed road,28.5795288,77.2309871
4120020190,school,Unnamed school,28.425882,77.106348
4154838092,school,Little Ones Public School,28.519551,77.2035198
4180327825,school,deepak vaiyas home,28.625488,77.1133697
4194541291,hospital,Unnamed hospital,28.446227,77.0613212
4212577542,school,Chiranjiv Bharati School,28.5194596,77.037658
4212577545,hospital,"Metro Hospital and Heart Institute, Gurgaon",28.518174,77.0388234
4213529489,school,Swiss Cottage school,28.5157955,77.0502838
4220719494,school,MAAC,28.5685408,77.2248824
4234968791,hospital,Chandiwala Institute of Eye,28.544205,77.2659895
4237012389,school,"Sarvodaya Vidyalaya (GBSSS), Govt. School",28.7144613,77.2170585
4269361827,school,DAV Public School Pushpanjali,28.6939915,77.1081266
4328150391,hospital,Pushpawati Singhania Hospital and Research Institute,28.53312,77.2254277
4335234515,road,Exit 2 Delhi,28.8766746,77.251313
4338782489,school,Evolution dance school,28.8032691,77.0512991
4367444089,school,Dev Public School.,28.6304673,76.9685752
4415894189,school,S.D. Public,28.6473887,77.169391
4435563990,school,FORE School of Management,28.5370038,77.1849245
4453247191,school,Modern school,28.5788563,77.0542962
4453248791,school,Venkateshwara international school,28.5889898,77.0389764
4453301889,school,Adarsh World School,28.5943755,77.0435682
4462856989,school,Unnamed school,28.6331399,76.9537195
4475061192,hospital,Savera Hospital,28.6884962,77.1222079
4481183892,hospital,Gamca,28.5703187,77.2369366
4483893393,school,St. Prayag school,28.6918581,77.1168424
4493652690,hospital,السكن,28.4460767,77.0615689
4511556292,school,Mount abu junior branch school,28.7117973,77.1023916
4511567590,hospital,Asha kiran mental hospital,28.7028126,77.0958863
4543297999,road,Unnamed road,28.5830377,77.2380752
4543298005,road,Unnamed road,28.5847109,77.24022
4574632989,hospital,Unnamed hospital,28.6438892,77.1387433
4639190772,school,Kendrya Vidyalya,28.7051428,77.1699743
4729010299,school,المدرسة العراقية,28.556265,77.2049515
4739903522,hospital,Sharp Sight Center,28.6403964,77.2934473
4749996424,school,Prakash Punj Vidya Sadan,28.6701353,77.2840423
4778391814,school,Government SChool,28.5611545,77.0591164
4815527622,school,Unnamed school,28.5841578,77.175441
4859916426,school,Sulabh Public School,28.597807,77.0799205
4859968811,hospital,Bhagat Chandra Hospital,28.5934549,77.0816478
4927143358,hospital,Adiva Hospital,28.5583994,77.2064208
4929089273,road,Unnamed road,28.7272987,77.2022679
4929089280,road,Unnamed road,28.7295911,77.1942104
4934333224,school,Government school,28.7369367,77.126039
4936063387,school,NC Jindal Public School,28.6628679,77.124514
4976515363,school,Bal vikash School,28.7330269,76.9009775
5023155725,school,Unnamed school,28.5654935,77.0005244
5065101781,road,Unnamed road,28.731005,77.1882691
5065101864,road,Unnamed road,28.733606,77.1787692
5065101886,road,Unnamed road,28.7361923,77.1712894
5099590622,school,Jaganath intl mngt school,28.5470179,77.2563459
5121928126,hospital,Guru Harkishan Hospital,28.5821004,77.2641583
5122054863,school,Scottish Early Years,28.6489732,77.3007936
5122593540,school,Soami Nagar Model School,28.5440473,77.2254741
5122593542,school,The Pinnacle School,28.5448773,77.2279586
5128503989,school,Soami Nagar Pre-Primary School,28.543396,77.2257564
5223511422,school,Ahlcon International School,28.6120628,77.2881353
5242148783,school,Government Primary School for the Deaf,28.6118017,77.287413
5242150470,school,School for Mentally Retarded Children,28.6118221,77.2876138
5244000722,school,Aster Public School,28.6096116,77.2896107
5246751221,hospital,Sir Ganga Ram Kolmet Hospital,28.643492,77.187296
5253691568,hospital,Cygnus Orthocare Hospital,28.5460823,77.1973263
5260804344,road,Unnamed road,28.4315665,77.0065759
5276893421,hospital,Apollo Spectra Hospitals,28.5555937,77.2412436
5277289181,hospital,Max Multi Speciality Centre,28.5434575,77.214298
5278746221,hospital,Unnamed hospital,28.4065208,77.3179232
5306200027,school,Mount Carmel School (Senior Wing),28.5760199,77.1652909
5325526114,school,Unnamed school,28.4736928,77.1217455
5331323944,hospital,Balhara's Le Cure Hospital,28.5097683,77.2014454
5331324929,school,Saint Mary's Junior School,28.5123981,77.203907
5338786924,school,BCC Model School,28.7396725,77.1193927
5338818321,school,Snehil Frontline Special School,28.7397795,77.1195329
5342219924,school,Kids Temple Public School,28.7385379,77.1214922
5343112121,school,Alok Bharti Public School,28.7364974,77.128777
5358882588,school,DAV Public School,28.5743511,77.1727645
5358882593,school,Kendriya Vidyalaya,28.5721181,77.1638274
5369753821,school,MC Primary School J-Block Sec-16 Rohini,28.7392311,77.1306159
5369815822,hospital,Mangalam Hospital,28.6228832,77.2966806
5372989287,hospital,Fortis C-DOC Hospital,28.5469888,77.2494873
5400420021,school,Delhi International Public School,28.7367974,77.1291872
5401477508,school,Modern Delhi International School,28.412628,77.3361157
5407719423,school,Rockfield Public School,28.734744,77.1248235
5407772022,school,Ryan Shalom Montessori,28.7346232,77.1241352
5455135886,school,Government Boys Senior Secondary School,28.5730899,77.2335349
5466445621,school,Unnamed school,28.6052898,77.2329222
5513273925,school,Jindal Public School,28.6720027,77.3305192
5534195673,school,Fulwari Play School,28.659489,77.32234
5534273697,hospital,Tirath Ram Hospital,28.666922,77.3178057
5544380960,hospital,Doctor Rajendra Prasad Centre for Opthalmic Sciences,28.5667966,77.2088857
5561145650,road,Unnamed road,28.5076228,77.3000392
5584870727,school,Kaviraj Khazan Chand Quetta Dayachand Arya Vedic Senior Secondary School,28.5866396,77.2523949
5588206671,road,Unnamed road,28.7225227,76.8432193
5588210084,road,Unnamed road,28.720828,76.8424364
5595955621,hospital,Safdarjung H back gate,28.5663672,77.207556
5647339501,road,Unnamed road,28.8765068,77.2574683
5647385629,road,Exit 1 Baghpat,28.8792312,77.2419622
5663496120,hospital,ESIC Hospital,28.5143778,77.2815719
5758573849,hospital,City Hospital,28.6439995,77.1912841
5799040150,hospital,Rural Medical Centre,28.5158966,77.1965361
5830038204,road,Unnamed road,28.492641,77.0832714
5914729083,hospital,Dr. Bhimrao Ambedkar Multispeciality Hospital,28.576653,77.3376879
5960740186,school,s6 BHIM Singh ni was,28.5309957,77.218045
5960754388,school,SH Computer Education,28.5309108,77.2170319
5960793702,school,Sant Nirankari,28.535831,77.2177052
5960818475,school,Swarn public school,28.5330124,77.2185763
5960921887,school,swarn public school,28.5332175,77.219553
6012565041,hospital,Institute of Brain and Spine,28.5656044,77.2442543
6021916568,road,Unnamed road,28.5690247,77.2114944
6041270054,school,Unnamed school,28.5191896,77.2281724
6071092569,hospital,Anahat Hospital,28.4832404,77.1071305
6071159159,school,Government Boys Senior Secondary School,28.4899855,77.1389634
6071159494,school,Lieutenant Atul Kataria School,28.4783458,77.0337175
6075069485,hospital,Saral Diagnostics,28.6944136,77.1287968
6077096070,school,Government Sarvoday Bal Vidyalaya,28.6327017,77.2303905
6081367254,school,Unnamed school,28.6707436,77.2842459
6082251692,road,Unnamed road,28.4485442,77.0385969
6134780515,hospital,Sama Hospital,28.5544846,77.2270262
6171203022,school,Kendriya Vidyalaya,28.5204901,77.2239646
6191507004,road,Unnamed road,28.6322987,77.34467
6203987732,school,SDMC Primary Model School,28.5768012,77.2397878
6203987733,school,Unnamed school,28.5768608,77.2407455
6207395594,school,Saint Mary's School,28.5051676,77.2061624
6221554150,hospital,Unnamed hospital,28.4349952,77.0352265
6243446986,hospital,Apollo,28.5403869,77.2829628
6255913360,school,Unnamed school,28.5323755,77.3025188
6257609191,hospital,National Institute of TB and Respiratory Diseases,28.529118,77.1900425
6257783817,school,Government Sarvodaya Vidyalaya,28.6959475,77.2159162
6271526238,road,Unnamed road,28.5245505,77.2925382
6282682557,school,SDMC Primary Coeducational School,28.5695905,77.248199
6341209902,school,Madarasa Millat-ul-Islam,28.5433478,77.264387
6362607170,school,Swami Hariharanand Public School,28.6627534,77.2403662
6385672562,hospital,Narang Hospital,28.6460854,77.0980297
6395753670,school,Rajkiya Sarvodaya Bal Vidyalaya,28.6138254,77.3185994
6411010208,school,Unnamed school,28.5238936,77.1896796
6411571309,hospital,Manchanda Hospital,28.4943675,77.1836992
6411571311,school,Government Sarvodaya Vidyalaya,28.4588686,77.1841549
6457033186,school,Samvad Shala,28.710528,77.3133462
6465991440,hospital,Paschim Vihar West,28.67852,77.0997686
6466294311,hospital,World Brain Center Hospital,28.6121754,77.0886731
6467828986,road,Unnamed road,28.4732209,77.0632339
6467828992,road,Unnamed road,28.4832263,77.0742677
6467829006,road,Unnamed road,28.4849126,77.0761371
6475002025,hospital,Max Medcentre,28.5645418,77.2399229
6490310065,hospital,Mehta Hospital,28.523344,77.2312921
6507350887,hospital,Unnamed hospital,28.6581566,77.1940384
6569833464,road,Unnamed road,28.4060197,76.9895347
6627227272,road,Unnamed road,28.4016547,77.0538622
6660513446,road,Unnamed road,28.6637023,77.2079001
6660529998,road,Unnamed road,28.6658535,77.2089326
6729018440,school,Decent Public School,28.7069273,77.1072435
6771396260,hospital,Diyos,28.5660178,77.1946519
6779419616,hospital,Aakash Hospital,28.5350359,77.2148651
6834036204,school,Ramanujan Sarvodaya Kanya Vidyalaya,28.5231246,77.1799665
6834036228,school,Unnamed school,28.5229593,77.1773673
6838075751,road,Unnamed road,28.6113976,77.2810679
6961335189,school,Bhatnagar International School,28.5295429,77.1540449
6961442936,school,Masjid-e-Quba Madrasa Islamia,28.5806388,77.1899811
6966287278,school,Unnamed school,28.5369319,77.2134518
6991277966,hospital,Sarvodya Hospital,28.4772418,77.0164105
6991277967,hospital,"Saraswati Hospital, Gurgaon",28.4686477,77.0382518
6991278237,hospital,"Shree Krishna Hospital, Gurgaon",28.4733303,77.003265
6991290274,hospital,"Sharma Hospital, Gurgaon",28.4618014,77.027472
6991311535,hospital,Shri Balaji Hospital and Trauma Center,28.4409108,76.980076
6991349886,hospital,Shri Balaji`S Multispeciality Hospital,28.4577278,76.9909818
6991430266,hospital,Saras Hospital,28.4871984,77.3124513
6991466189,hospital,Arogya Dham Hospital,28.4647772,77.2990698
6991634425,hospital,"Anand Hospital, Gurgaon",28.42578,77.09168
6993917647,hospital,Navjeevan Hospital and Maternity Centre,28.4571607,77.0143104
6993922158,hospital,Sethi Hospital,28.4565865,77.0207731
6993926207,hospital,"Surgicare Hospital, Gurgaon",28.4272365,77.0940806
6993926819,hospital,Park Hospital Gurgaon,28.4201363,77.0487258
6993927573,hospital,"Sunrise Hospital, Faridabad",28.5769233,77.2660263
6993931828,hospital,Pasricha Hospital and Maternity Home,28.4568812,77.0222792
6994059852,hospital,Dayal Eye & Maternity Centre,28.4559386,77.0374082
6994071021,hospital,"Mittal Hospital, Faridabad",28.4088045,77.3238024
6994092369,hospital,Shubham Hospital,28.4567439,77.0210648
6994099950,hospital,"Kalyani Hospital, Gurgaon",28.4678366,77.0422697
6994180800,hospital,Sanskar Hospital,28.4715009,77.3204935
6994225720,hospital,Chandrawati Child and Maternity Hospital,28.4161414,77.3163016
6994228914,hospital,Uma Sanjeevani Health Centre And Hospital,28.4814867,77.0863196
6994248249,hospital,Privat Hospital,28.4797951,77.0746909
6994275163,hospital,Vandana Hospital and Research Center,28.6933769,76.9256393
6994292520,hospital,Geeta Hospital,28.4362993,77.3144785
6994292521,hospital,"Shivalik Hospital, Faridabad",28.4799532,77.3110379
6994325188,hospital,Delhi Hospital and Nursing Home,28.6903242,76.9415506
6994329594,hospital,"Sidhesh Hospital, Gurgaon",28.4752436,77.0824251
6994500905,hospital,"Sharma Nursing Home, Faridabad",28.4012837,77.3064146
6994541473,hospital,Chiranjiv Hospital,28.4644545,77.0187361
6994541474,hospital,Asian Institute of Medical Sciences,28.4259429,77.3000225
6994583475,hospital,"Shivam Hospital, Jhajjar",28.7017934,76.9397205
6997221454,hospital,"Kalyan Hospital, Gurgaon",28.5061017,77.0222524
6997230529,hospital,"Sangwan Hospital, Gurgaon",28.4749937,77.0561126
6997303635,hospital,S.R.S. Hospital and Critical Care Unit,28.4033015,76.9881588
6997303645,hospital,Anand Eye Hospital,28.4269594,77.3189986
6997463000,hospital,Umkal Hospital,28.4715295,77.0733096
6997568727,hospital,Thukral Hospital,28.4814348,77.0653957
6997600243,hospital,"Triveni Hospital, Gurgaon",28.463775,77.022188
6997631317,hospital,Taneja Hospital,28.4663216,77.0138611
6997688587,hospital,"Pushpanjali Hospital, Gurgaon",28.4500967,77.0327827
6997700191,hospital,Yashroop Medical Centre,28.4822505,77.0214477
6997700192,hospital,Chirag Hospital Pvt. Ltd,28.4953531,77.0114095
6997700212,hospital,Fortis Memorial Research Institute / Fortis Vivekanand Hospital,28.4567857,77.0728657
6997700220,hospital,"Lotus Hospital, Gurgaon",28.4692855,77.034447
6997700276,hospital,Aastha Children Hospital,28.4717765,77.3112819
6997700282,hospital,"Sparsh Hospital, Gurgaon",28.4701296,77.0226856
6997700322,hospital,Mangalam Hospital and Heart Centre,28.4539854,77.0139308
6997714609,hospital,Ahuja Hospital and Maternity Home,28.4120448,77.328397
6997714626,hospital,"Shivam Hospital, Gurgaon",28.4574704,77.0536983
6997714637,hospital,"Rajiv Memorial Eye Infirmary, Jacobpura",28.4624763,77.0276631
6997779860,hospital,Brahm Shakti Sanjivani Hospital Pvt Ltd,28.6909441,76.9388317
6997832575,hospital,"Sneh Hospital, Gurgaon",28.4823666,77.0141546
6997912505,hospital,Ayushman Hospital And Trauma Centre,28.4379095,77.0110461
6997916397,hospital,Aryan Hospital,28.469559,77.0195045
6997941837,hospital,Rama Hospital & Nursing Home,28.4567256,77.0230785
6998006337,hospital,Jain Sant Phool Chand Ji Charitable Hospital,28.4771569,77.0158929
6998051837,hospital,Abhinav Hospital,28.4104443,77.2921107
6998114433,hospital,Kathuria Hospital,28.4534132,77.0199907
7000653109,hospital,Tirath Ram Hospitals Pvt Ltd,28.457085,77.0201597
7000653119,hospital,"Mission Hospital, Jhajjar",28.6877184,76.9524703
7000653124,hospital,Sakthi Kerala Ayurvedic Treatment Centre,28.4162852,77.3112387
7001015603,hospital,Lall Nursing and Maternity Home,28.4667802,77.027307
7001218513,hospital,"Centre For Sight, Gurgaon, New Railway Road",28.4682869,77.0260289
7001301856,hospital,"Satyam Hospital, Gurgaon",28.4609572,77.0180051
7001557336,hospital,Valencia Emergency and Criti Care,28.4802878,77.3143262
7001630012,hospital,Dr Sethis Amar Hospital,28.8795874,76.9109662
7002835676,hospital,Aar Pee Hospital,28.4284301,77.3165712
7002913046,hospital,Ahooja Eye and Dental Institute Hospital,28.4639141,77.0305404
7002917150,hospital,Lall Eye Care Centre,28.4667015,77.0272123
7002943647,hospital,Verma E.N.T. Hospital,28.4652069,77.0280714
7002954086,hospital,"Gupta Hospital, Gurgaon",28.4644246,77.0268832
7002991292,hospital,Jackson Hospital,28.4691487,77.0286816
7002997882,hospital,"Apollo Cradle Hospital,Gurgaon",28.4786458,77.0474356
7003011057,hospital,Sukhmani Hospital Pvt. Ltd,28.4342254,77.0481464
7003011058,hospital,"R K Hospital, Gurgaon",28.4930865,77.0088346
7003021987,hospital,"Parijat Hospital, Faridabad",28.4429744,77.3043148
7007523133,hospital,Pdm General Hospital / Pd Memorial General Hospital,28.6894112,76.8908188
7007531446,hospital,Kamla Hospital,28.446446,76.9915827
7007695184,hospital,M Goel Hospital,28.4675082,77.027738
7008020087,hospital,Sunrise Hospital,28.4428341,77.0106183
7008078166,hospital,Rajendra Hospital,28.4495431,77.0211279
7008192495,hospital,Sri Rattan Singh Memorial Hospital,28.7053628,76.9377212
7008219482,hospital,Kriti Hospital,28.4249603,77.093567
7008343520,hospital,"Centre For Sight, Faridabad",28.4116998,77.3148374
7008343539,hospital,"Jeevan Jyoti Hospital, Gurgaon",28.4763789,77.0350291
7008343544,hospital,Dr.Dilip Hospital,28.4321321,77.3191256
7008422644,hospital,"Aastha Hospital, Bahadurgarh",28.6886312,76.9342183
7008441237,hospital,Samvit Health Care,28.4350285,77.0351672
7008475347,hospital,"Yadav Hospital, Gurgoan",28.4432185,77.0031618
7008651018,hospital,Arogyadham Hospital,28.4636559,77.2924554
7008691154,hospital,Nangia Hospital Ent and Maternity,28.4558195,77.0218735
7008806754,hospital,Anuj Hospital,28.4159768,77.3209988
7008806760,hospital,"Jeevan Jyoti Hospital, Jhajjar",28.6892159,76.9476253
7008960818,hospital,Vinayak Hospital,28.4543386,77.0214859
7009221079,hospital,Arunodaya Deseret Eye Hospital,28.4277743,77.1087643
7009225899,hospital,Lord Krishna Hospital,28.4785067,77.0854291
7009263589,hospital,Dr Fateh Singh Hospital,28.6471512,77.3412971
7009267020,hospital,Mata Sumitra Devi Hospital,28.5779214,77.0239288
7009675990,hospital,Arihant Hospital,28.4486051,77.0824411
7009891156,hospital,Brighton Kavita Hospital,28.4339836,77.3208117
7009892483,hospital,Ahmed Hospital Multi Speciality,28.4580332,77.0412478
7010125928,hospital,Aarvy Hospital,28.457393,77.0300911
7010125933,hospital,Shri Ram Memorial Hospital,28.4936346,77.099508
7010339325,hospital,Lohan Children Hospital,28.4013325,77.3058261
7010339330,hospital,K.B Hospital,28.4169126,77.2903019
7010378677,hospital,Sikka Maternity And Surgical Center,28.4784222,77.0991004
7010398003,hospital,Vaishnavi Nursing Home,28.4385723,77.0131141
7010444201,hospital,"Mamta Hospital, Gurgaon",28.469724,77.0338102
7010444206,hospital,M.S Hospital,28.4640593,77.0218559
7010548379,hospital,Parnami Ortho and Spine Hospital,28.8793596,77.1211427
7010591317,hospital,Bhardwaj Hospital,28.4901894,77.0068324
7010761022,hospital,"Jeewan Jyoti Hospital, Faridabad",28.4020269,77.324825
7010842699,hospital,Parashar Hospital,28.4539324,77.0204298
7010904771,hospital,Carewell Hospital,28.4339848,77.3211242
7010941767,hospital,Chandni Hospital,28.4163407,77.3197979
7011009452,hospital,Vandana Surgical and Maternity Home,28.4100982,77.2920538
7020925951,hospital,"Government District Hospital, Gautam Buddha Nagar",28.5770068,77.3394731
7022320908,hospital,Gopal Hospital,28.7258364,77.2893602
7024789288,hospital,Aasha Deep Hospital,28.6875033,77.3394397
7024852288,hospital,S.S. Medicare Centre,28.6661429,77.3310229
7025153786,hospital,Icare Eye Hospital And Post Graduate Institute Glaucoma Research Centre,28.5799524,77.3355089
7025481517,hospital,R K Medicare,28.6267789,77.3483944
7025610751,hospital,Getwell physiotherapy center,28.6921759,77.3416096
7025804773,hospital,Sparsh Multispeciality Hospital,28.6927335,77.3397857
7025849063,hospital,"Meenakshi Hospital, Ghaziabad",28.642142,77.3257148
7027392185,hospital,Vinayak Hospital,28.5711965,77.3280893
7027606290,hospital,"Tewari Eye Centre, Vaishali",28.6463402,77.3470599
7027783673,hospital,Dharampal Memorial Hospital - Ghaziabad,28.7486784,77.2862246
7027932255,hospital,Sarvodaya Hospital and Trauma Centre,28.6449508,77.3391154
7027933698,hospital,"Shivam Hospital, Gautam Buddha Nagar",28.6098891,77.3467249
7028082114,hospital,Ajit Surgical and Maternity Centre,28.5982422,77.3389501
7028292035,hospital,Metro Heart Institute and Metro Multi Speciality Hospital,28.5974067,77.336034
7029420523,hospital,Diveeksha Eye clinic,28.5830991,77.3351213
7030406299,hospital,Max Hospital,28.5742086,77.3229977
7030575139,hospital,"Apollo Hospitals , Noida",28.5794754,77.3349001
7031558968,hospital,"Parakh Hospital, Ghaziabad",28.6934335,77.3396918
7034914349,hospital,Pulse Medicare,28.6405677,77.3412821
7034980680,hospital,City Hospital - Ghaziabad,28.7387381,77.3143986
7035451664,hospital,Metro Hospitals and Heart Institute (Cardiology Wing),28.5973899,77.3379467
7035825553,hospital,Swami Nand Lal Jee Hospital Pvt Ltd,28.6937758,77.3447263
7037320325,hospital,Indo Gulf Hospital & Diagnostics,28.5771885,77.3272443
7037813514,hospital,Vaishali Health Clinic,28.6376181,77.3385546
7038400970,hospital,City Hospital,28.596142,77.343176
7038608967,hospital,"Kamal Hospital, Ghaziabad",28.6446849,77.3253943
7041199924,road,Unnamed road,28.4710981,77.0605531
7099811528,hospital,Metro Hospital and Heart Institute,28.5647231,77.2437868
7099861698,school,Manav Mangal Public School,28.4986996,77.2954384
7130306819,hospital,AIIMS Emergency,28.567441,77.2096335
7138493125,hospital,CRPF Composite Hospital,28.6390663,76.9572897
7138493132,hospital,Doctor Grover's Nursing Home,28.6284133,77.1469129
7138493140,hospital,Sushruta Trauma Centre,28.6797783,77.2283852
7138493141,hospital,Bharti Nursingh Home,28.5874217,77.0702439
7138493147,hospital,Dr B R Sur Homoeopathic Medical college and Hospital,28.5862718,77.1684265
7138493151,hospital,Orthoplus Hospital,28.6139007,76.976352
7138493167,hospital,"Vardhman Mahavir Medical College (VMMC) & Safdarjung Hospital, New Delhi",28.5685701,77.2064068
7138493169,hospital,Prem Chiktsa Kendra,28.5739982,77.1773627
7138493179,hospital,Shree Dhanvantri Hospital,28.6121179,76.9756046
7138493193,hospital,Kalawati Saran Children's Hospital,28.6357652,77.2110664
7138493195,hospital,"Sports Injury Centre, Safdarjung Hospital (Part of SJH), New Delhi",28.5681531,77.2054264
7138493196,hospital,Maulana Azad Institute of Dental Sciences,28.6371532,77.236999
7138493199,hospital,Divya Prastha Hospital,28.5862424,77.0875445
7138493201,hospital,Attar Sain Jain Hospital,28.6821792,77.1502237
7138493204,hospital,Satyawadi Raja Harish Chander Hospital,28.840596,77.1032565
7138493205,hospital,Charak Palika Hospital NDMC,28.5853147,77.1770243
7138493206,hospital,Kesar Nursing Home Dabri,28.6089466,77.1008845
7138493229,hospital,Chacha Nehru Bal Chikitsalaya,28.653163,77.268342
7138493234,hospital,Maharishi Valmiki Hospital,28.775826,77.048597
7138493235,hospital,Medeor Hospital,28.5964391,77.0457328
7138493238,hospital,Shakuntla Nursing Home Sagarpur,28.6081283,77.0952919
7138493242,hospital,Malik Maternity Home and Surgical Centre,28.6154991,76.982911
7138493248,hospital,"Government Hospital, Jawalapuri",28.674566,77.080093
7138493258,hospital,Central Hospital (Northern Railways),28.6365867,77.2173905
7138493264,hospital,Singhal Hospital Palam Colony,28.5882997,77.0887312
7138493273,hospital,Doctors Diagnostic Centre Najafgarh,28.6145619,76.9844782
7138534287,hospital,Lady Hardinge Medical College & Associated Hospitals,28.634138,77.212909
7138534296,hospital,Free Maternity & Child Welfare Centeri,28.6472649,77.2308534
7138534301,hospital,Kaya Kalp Hospital,28.7305663,77.2100401
7138534302,hospital,Sunder Lal Jain Eye Hospital,28.6495013,77.2098206
7138534304,hospital,Aman Medical Centre,28.5216502,77.1812935
7138534309,hospital,Navjeevan Nursing Home,28.653289,77.2780809
7138534310,hospital,Kasturba Hospital,28.649831,77.2359282
7138534315,hospital,Mayur Medicare Center,28.6060579,77.2933797
7138534316,hospital,Sukhmani Hospital,28.5597233,77.2005001
7138534317,hospital,Vardaan Hospital,28.5372268,77.2149447
7138534318,hospital,VMMC & SAFDARJANG HOSPITAL,28.5686672,77.2067292
7138534325,hospital,Leekha Nursing Home,28.5520278,77.2080381
7138534327,hospital,Kukreja Hospital,28.6092197,77.2948507
7138534328,hospital,Bhagwati Hospital,28.5241613,77.1788654
7138534337,hospital,Sparsh Mother & child care hospital,28.6801482,77.1945449
7138534339,hospital,Medeor Hospital,28.5374555,77.1810712
7138534340,hospital,NGO Lok Kalyan Samiti,28.629808,77.2387009
7138534345,hospital,Parmarth Mission Hospital,28.6810176,77.1979673
7138534358,hospital,Aruna Asaf Ali Government Hospital,28.6697661,77.2178501
7138534363,hospital,Raj Rani Hospital,28.6138358,77.3233982
7138534364,hospital,Dr. N. C. Joshi Memorial Hospital,28.6529654,77.1994853
7138534366,hospital,Malhotra Nursing Home,28.6197989,77.3039095
7138534367,hospital,Shree Jeewan Hospital,28.6579998,77.1943948
7138534368,hospital,Mohan Eye Institute,28.6431266,77.1906871
7138534372,hospital,Navjoyti Eye Centre,28.6435226,77.2424612
7138534373,hospital,Mahesh Hospital,28.6264544,77.3023362
7138534382,hospital,Jag Pravesh Chandra Hospital,28.6764665,77.262937
7138534385,hospital,Healing Touch Hospital,28.5427709,77.2073754
7138534387,hospital,Gouri Hospital Ltd,28.6796305,77.20819
7138534388,hospital,Malik Nursing Home,28.6094473,77.3343703
7138534389,hospital,Sanjivini Nursing Home,28.6814911,77.2007198
7138534392,hospital,Sharma Medical Center,28.6494565,77.209831
7138534395,hospital,Sunil Hospital and Nursing Home,28.5358718,77.2091623
7138534401,hospital,Mohan Nursing Home & Hospital,28.702744,77.267766
7138534407,hospital,Vibhu Nursing Home,28.5347579,77.2083916
7138534411,hospital,Satyam Medical Centre,28.5412998,77.1864475
7138534416,hospital,Tirath Ram Shah Hospital,28.6708223,77.2162565
7138534434,hospital,Sankhwar Hospital,28.6151295,77.3237989
7138534435,hospital,Neera Eye Centre,28.6424432,77.2427645
7138534440,hospital,Mahavir International Eye Hospital,28.6598583,77.2157522
7138534441,hospital,Nazar Kanwar Surana Hospital,28.6752381,77.1907591
7138632121,hospital,Savitri Hospital,28.686033,77.1471281
7138632123,hospital,MH Haiderpur,28.7235001,77.1515703
7138632124,hospital,Kuber Hospital,28.6900528,77.1357109
7138632125,hospital,Children & Maternity Centre,28.7334154,77.1261114
7138632128,hospital,"Max Multi Speciality Centre, Pitampura",28.6931702,77.1517793
7138632131,hospital,Dr BD Attam Hospital and Medical Research Centre,28.6960546,77.1734959
7138632132,hospital,Fortis Bloom,28.5287785,77.2437938
7138632133,hospital,Gupta Nursing Home,28.6759254,77.2876085
7138632136,hospital,Kamaal Nursing Home,28.6798998,77.2718597
7138632137,hospital,Muni Maya Ram Jain Hospital,28.700019,77.141187
7138632142,hospital,jp memorial,28.6845119,77.3296536
7138632143,hospital,Medha Hospital,28.7045697,77.1449278
7138632145,hospital,Sai Charitable Dispensary & Nursing Home,28.6893425,77.3003113
7138632146,hospital,Saroj Hospital,28.7061564,77.1290461
7138632150,hospital,MCD Maternity Government Hospital,28.7113776,77.1176777
7138632152,hospital,Arora Nursing Home,28.7141757,77.1528872
7138632155,hospital,Jiwan Charitable Hospital,28.6897352,77.0858096
7138632156,hospital,Karala Government Hospital,28.7321173,77.037425
7138632162,hospital,Government Hospital,28.668361,77.277492
7138632164,hospital,Jeevan Jyoti Hospital,28.5223738,77.2855634
7138632165,hospital,Chandiwala Hospital Shahdara,28.6750114,77.2904545
7138632166,hospital,Upchar Nursing Home,28.6975051,77.1772633
7138632167,hospital,Talwar Medical Centre,28.5363921,77.2441716
7138632176,hospital,Manav Medicare Centre,28.5706874,77.2199599
7138632178,hospital,Kesar Hospital,28.7059502,77.1644781
7138632180,hospital,st. stephen hospital,28.6939954,77.3171197
7138632182,hospital,Garg Nursing Home,28.6790286,77.157259
7138632183,hospital,Santom Hospital,28.7140205,77.1383483
7138632184,hospital,"Manna Clinic & Maternity Home, Rani Bagh",28.6857157,77.1315855
7138632185,hospital,Prashant Nursing Home,28.7148991,77.1326764
7138632189,hospital,Sai Drishti Maternity Centre,28.7313713,77.1251957
7138632194,hospital,IG ESI Hospital,28.6665856,77.3111297
7138632196,hospital,Hakeem Abdul Hameed Centenary Hospital,28.5149753,77.2519382
7138632199,hospital,Vallabh Hospital,28.5323573,77.2659687
7138632200,hospital,Red Cross Hospital Society Mat. Welfare and Child Care Hospital,28.678117,77.3225828
7138632202,hospital,Phoenix Hopsital,28.5500671,77.2440346
7138632203,hospital,Rashmi Hospital,28.7025469,77.1473691
7138632208,hospital,Bhagwan Mahavir Super Speciality Hospital,28.7057477,77.1294721
7138632210,hospital,Jhamb Maternity and Medical Centre,28.7090339,77.1540084
7138632216,hospital,Capital Eye Centre,28.6874142,77.1928254
7138632217,hospital,Bhagwati Hospital,28.7191521,77.1295373
7138632224,hospital,Tondan hospital,28.6664871,77.3207024
7138632226,hospital,Primary Urban Health Centre Cum Maternity Home & Poly Clinic,28.513195,77.2652745
7138632228,hospital,North Delhi Nursing Home,28.696547,77.179557
7138632230,hospital,shanti nursing home LLP,28.6779567,77.2825741
7138632232,hospital,Banarsidas Chandiwala Insitute of Medical Sciences,28.5441942,77.2676793
7138632234,hospital,Family Hospital,28.7013032,77.0983471
7138632237,hospital,Kumar Medical & Maternity Centre,28.7041641,77.160742
7138632238,hospital,Parivar Sewa Sansthan,28.5672773,77.2473565
7138632241,hospital,MCW Sewa Nagar,28.577053,77.226043
7138632244,hospital,Brahm Shakti Hospital,28.712357,77.081262
7138632254,hospital,Sona Maternity and Nursing Home,28.6656992,77.2906128
7138632256,hospital,DGD Vivek Vihar,28.6696193,77.3190619
7138632257,hospital,D.R. Nursing Home,28.6963486,77.1730105
7138632258,hospital,Netrayatan Hospital,28.5299782,77.2451946
7138632261,hospital,MCW Giri Nagar,28.540349,77.262854
7138632263,hospital,Kanta Sethi Hospital,28.7012483,77.0988184
7138632264,hospital,Delhi Common Wealth Women Association,28.5556776,77.2369473
7138632265,hospital,Kalyan Nursing Home,28.6814958,77.3283939
7138632267,hospital,best care hospital,28.68452,77.3278636
7138632272,hospital,Maheshwari Hospital,28.7122011,77.1419875
7149092377,school,Darul Qur'an Madrasa Abdurrahman Tahfizul Qur'an,28.5295756,77.2143363
7168803706,hospital,Government Hospital Hasangarh,28.833708,76.843442
7168803716,hospital,Airforce Hospital,28.4353706,77.0234423
7168803777,hospital,Government Hospital Feroj Pur Bangar,28.83005,76.982361
7168803799,hospital,GH Gurgaon,28.474246,77.027117
7168803802,hospital,Civil Hospital Bahadurgarh,28.696657,76.923954
7168803822,hospital,Civil Hospital Kanonda,28.7660711,76.9308597
7168803920,hospital,"Esic Hospital, Gurugram",28.4681022,77.0013592
7193086031,school,Government Coeducational Senior Secondary School,28.5762957,77.2391399
7200423020,hospital,Government Hospital Chirodi,28.7792015,77.3337869
7256804856,road,Unnamed road,28.5799157,77.3404608
7395028895,school,India international secondary school,28.7172505,77.2869559
7498553877,hospital,NDMS Park,28.4851071,77.1938033
7543715659,hospital,PGH Hospitals,28.636193,77.048981
7543715660,hospital,Sanjivani Hospital,28.674249,77.0502678
7543715661,hospital,Saraswati Hospital and Laproscopic Centre,28.626424,77.009835
7543715662,hospital,Kalra Hospital,28.6551825,77.1387304
7543715663,hospital,MKW Hospital,28.6392919,77.119633
7543715664,hospital,UK Nursing Home,28.634107,77.076458
7543715665,hospital,Goyal Hospital,28.6616551,77.0853346
7543715668,hospital,Aakash Healthcare Super Speciality Hospital,28.6054061,77.0535572
7543715669,hospital,Care n Cure 24,28.653375,77.0726925
7543715671,hospital,Sunand Hospital & IVF Centre,28.618746,77.0480879
7543715672,hospital,Medstar Hospital,28.6590574,77.0907424
7543715674,hospital,Karuna Sindhu Charitable Hospital,28.6557378,77.0163489
7543715675,hospital,Government Ayurvedic Hospital,28.6635722,77.1458797
7543715676,hospital,Kiran Das Charitable Hospital,28.6524161,77.0617704
7543715679,hospital,Apollo Cradle Maternity & Children's Hospital,28.6617972,77.1503029
7543715680,hospital,Satyabhama Hospital,28.6769478,77.0634761
7543715681,hospital,Dashmesh Hospital,28.6304061,77.0988531
7543715682,hospital,Sumiti Vishal Charitable Hospital,28.6137065,77.044482
7543715687,hospital,Gandhi Hospital,28.6200029,77.0535384
7543715688,hospital,Khetarpal Hospital,28.652562,77.130018
7543715689,hospital,Hardik Hospital,28.6367362,77.0532022
7543715690,hospital,Mata Chandana Devi Hospital,28.635321,77.0539739
7543715692,hospital,R. Nayyar Hospital,28.6203861,77.0431588
7543715693,hospital,Bagga Nursing Home,28.660249,77.090997
7543715694,hospital,Rao Raghubir Hospital,28.6750507,77.0610089
7543715695,hospital,Surya Laxmi Hospital,28.6322953,77.0499201
7543715696,hospital,Kanojia Hospital,28.6262562,77.012034
7543715698,hospital,Rathi Hospital,28.6514885,77.0315432
7543715700,hospital,Sodhi Nursing Home and ENT Hospital,28.6702118,77.087877
7543715702,hospital,Nijhara Hospital,28.646316,77.165748
7543715703,hospital,Mehra Hospital,28.6711074,77.1276492
7543715706,hospital,Sonia Hospital,28.682627,77.0524348
7543715708,hospital,JankiDas Kapur Memorial Hospital,28.649171,77.151169
7543715711,hospital,Sehgal Neo Hospital,28.658057,77.09143
7543715712,hospital,Mahindru Hospital,28.6206121,77.0495632
7543715713,hospital,Arya Hospital,28.6172035,77.0794442
7543715715,hospital,RLKC Hospital,28.6510947,77.1546934
7543715716,hospital,SR Krishna Hospital,28.61641,77.047023
7543715717,hospital,Bhatia Global Hospital,28.6655435,77.08244
7543715721,hospital,Satya Multi Speciality Hospital,28.6268253,77.039392
7543715724,hospital,Asha Hospital,28.6365818,77.0516082
7543715725,hospital,Jeevan Jyoti Hospital,28.6190592,77.0466915
7543715726,hospital,Bala Ji Hospital,28.6334854,77.0558285
7543715727,hospital,Shri Mahant Gurmukh Singhji Charitable Hospital,28.6739475,77.1352525
7543715728,hospital,R.R.Hospital,28.6278418,77.0126848
7543715729,hospital,Sanjeevani Maternity & Children Hospital,28.6222392,77.0390502
7543715730,hospital,Konarc Hospital,28.6773715,77.0638665
7543715731,hospital,Santosh Hospital,28.6789124,77.0502929
7543715732,hospital,Care New born & Child Hospital,28.6674155,77.1155597
7543715733,hospital,Tarak Hospital India Private Limited,28.619298,77.030036
7543715734,hospital,Jainar Hospital,28.660601,77.0907507
7543715735,hospital,Khushi Hospital,28.607392,77.0491427
7543715736,hospital,Amit Nursing Home,28.6340005,77.1095894
7543715737,hospital,Nanak Darbar Charitable Hospital,28.6520769,77.0615293
7543715738,hospital,Mata Chanan Devi Hospital,28.618749,77.078224
7543715739,hospital,Lotus Hospital,28.626739,77.110763
7543715742,hospital,Aashirwad Nursing Home,28.6379887,77.0520031
7543715743,hospital,Sumitra Hospital,28.6734516,77.1240716
7543715744,hospital,Asi Hospital,28.6561778,77.1334074
7543715745,hospital,Matrchaya Child Care,28.665228,77.08128
7543715747,hospital,Sanchet Hospital,28.6700151,77.0885037
7543715748,hospital,Mata Roop Rani Maggo Hospital,28.6211011,77.0502551
7543715750,hospital,Sai Nursing Home,28.621501,77.081707
7543715751,hospital,Governmentt Eye Hospital,28.6697864,77.0646877
7543715752,hospital,"Goyal Hospital, Nilothi",28.6527464,77.0707603
7543715753,hospital,Gaudham Cancer Ayurvedic Treatment & Research Center,28.67286,77.130852
7543715755,hospital,SRG Hospital,28.6496187,77.0296634
7543715756,hospital,B.M. Gupta Hospital Pvt. Ltd.,28.6195378,77.0613682
7543715758,hospital,Kamlesh Nursing Home,28.6699638,77.0886996
7543715759,hospital,Shubh Nursing Home,28.635346,77.0566637
7543715760,hospital,Sushruta Maternity And Surgical Centre,28.6587906,77.0903999
7543715761,hospital,Dwarika Medicare & Maternity Centre,28.6148521,77.0490279
7543715763,hospital,Jasrotia Hospital,28.6237693,77.1157209
7543715764,hospital,Sanjivani Gynec & Children Hospital,28.6242925,77.0390494
7543715767,hospital,Genesis Hospital,28.620674,77.08125
7543715768,hospital,Ardent Ganpati Hospital,28.6819483,77.0387679
7543715773,hospital,Dhruv Hospital,28.6890276,77.0857544
7543715774,hospital,Dr Suresh Garg - Eye & Laser Hospital,28.671097,77.110835
7543715775,hospital,Mansaram Hospital,28.6723615,77.0588003
7544955434,hospital,Gendox Hospital,28.519682,77.1733997
7544955436,hospital,Vashishta Clinics & Hospital,28.5352441,77.2079327
7544955437,hospital,Sabharwal Hospital,28.6443841,77.2385497
7544955438,hospital,Sunrise Healthcare Centre,28.5452411,77.3001922
7544955441,hospital,Dehli Hospital,28.6418873,77.2450734
7544955443,hospital,Apollo Spectra Hospitals,28.6583838,77.1936638
7544955444,hospital,Luv Kush Hospital,28.724975,77.2687617
7544955447,hospital,K.R. Hospital,28.5074677,77.1848394
7544955449,hospital,Neptune Hospital,28.5324257,77.2026545
7544955451,hospital,Lal Hospital,28.7025443,77.2832977
7544955454,hospital,Alshifa Multispeciality Hospital,28.5570997,77.2929324
7544955455,hospital,Kalindi Hospital,28.5408332,77.2958778
7544955456,hospital,Vasist Hospital,28.701646,77.280317
7544955457,hospital,Orthostar Hospital,28.5083921,77.2314148
7544955461,hospital,Behl Hospital,28.6243272,77.1367669
7544955462,hospital,Yogmaya Multispeciality Hospital,28.4943274,77.1833094
7544955464,hospital,Dr Chaudhry's Moral Hospital,28.7023722,77.2724415
7544955465,hospital,RK Hospital,28.5034403,77.2480077
7544955466,hospital,Lions Kidney Hospitals,28.571321,77.274224
7544955467,hospital,Taravati Hospital,28.628851,77.300537
7544955468,hospital,Panchsheel Hospital,28.7017,77.279607
7544955469,hospital,Jai Maa Tara Hospital,28.6738845,77.1800003
7544955470,hospital,Viola Hospital,28.5588756,77.2942198
7544955471,hospital,Safdarjung Hospital,28.5773794,77.1774582
7544955472,hospital,BSF Hospital,28.5109301,77.2407796
7544955474,hospital,Bal Kishan Memorial Hospital,28.5118287,77.2346317
7544955475,hospital,Neha Hospital,28.7196717,77.2658014
7544955476,hospital,L.D. Hospital,28.5004025,77.3232801
7544955478,hospital,Triveni Hospital,28.7207367,77.2666955
7544955480,hospital,Kunj Eye Hospital,28.500025,77.237142
7544955481,hospital,Virmani Hospital,28.619588,77.3012574
7544955482,hospital,Faraz Hospital,28.5464875,77.3005748
7544955483,hospital,Aashlok Hospital,28.566466,77.198976
7544955485,hospital,Vinod Karhana Hospital,28.712504,77.2626857
7544955487,hospital,Curewell Hospital,28.6651197,77.1952107
7544955488,hospital,National Hospital,28.507902,77.2494122
7544955490,hospital,Sawan Neelu Angel's Multispeciality Hospital,28.522116,77.215201
7544955492,hospital,Muskan Hospital,28.6919851,77.2548371
7544955493,hospital,Arpan Hospital,28.5104176,77.2374101
7544955494,hospital,Asian Samra Multi Speciality Hospital,28.701808,77.278726
7544955495,hospital,Iqbal Faizy Hospital,28.5561387,77.2893706
7544955496,hospital,Vikas Hospital,28.5193612,77.1743007
7544955498,hospital,Base Hospital,28.5095632,77.2486514
7544955499,hospital,Batla Hospital,28.56701,77.2843026
7544955500,hospital,AIIMS Urban Health Centre,28.5221871,77.242704
7544955501,hospital,Silver Line Nursing Home,28.6228036,77.2959726
7544955502,hospital,Cribs Hospital,28.543241,77.300456
7544955504,hospital,Dr. Sunder Lal Memorial Hospital,28.5063405,77.231747
7544955506,hospital,Kavita Poly Clinic & Hospital,28.7261791,77.2704213
7544955507,hospital,Sanjeevan Hospital,28.6412816,77.2429413
7544955510,hospital,Jeewan Hospital,28.643625,77.188255
7544955511,hospital,Bhagat Hospital,28.6085331,77.1060923
7544955512,hospital,Mavi Hospital,28.7134013,77.263533
7544955513,hospital,Sri Guru Nanak Charitable Hospital,28.629893,77.146723
7544955514,hospital,Guru Harkrishan Hospital,28.581479,77.261959
7544955515,hospital,Aarogya Hospital,28.6413801,77.2863392
7544955516,hospital,Bansal Hospital,28.563833,77.271553
7544955517,hospital,Apex Citi Hospital,28.6265513,77.3019477
7544955518,hospital,Adarsh Hospital,28.535139,77.2223229
7544955519,hospital,ECHS Polyclinic Hospital,28.5095465,77.2545063
7544955520,hospital,Dhan Devi Charitable Hospital,28.5253365,77.2363897
7544955521,hospital,White House Hospital,28.7018331,77.2784256
7544955522,hospital,Delhi ENT Multispeciality Hospital,28.539926,77.292145
7544955523,hospital,Khadija National Hospital,28.6437984,77.2381596
7544955524,hospital,Apex Hospital,28.5001805,77.1843915
7544955525,hospital,Balak Ram Hospital,28.5114808,77.202496
7544955526,hospital,Nature Care Hospital,28.7618377,77.1871469
7545203137,hospital,Raj Poly Clinic Hospital,28.6989183,77.0530355
7545203138,hospital,Jain Muni Roshan Lal Charitable Hospital,28.6751133,77.162161
7545203139,hospital,Chouhan Hospital,28.8260731,77.1760006
7545203140,hospital,Sinha Hospital,28.6124178,76.9931022
7545203141,hospital,Nirmal Hospital,28.820678,77.173096
7545203142,hospital,Rohan Hospital,28.629752,77.002263
7545203143,hospital,Dr. Meena Indra Hospital,28.7984412,77.0356652
7545203145,hospital,Indus Valley Hospitals,28.6136472,76.9909557
7545203149,hospital,Naman Hospital,28.85958,77.101773
7545203150,hospital,Pearl Hospital,28.5959686,76.9916517
7545203151,hospital,Kesar Hospital,28.695522,77.0591
7545203152,hospital,Shree Hospital,28.5982541,77.041201
7545203154,hospital,Devansh Hospital,28.7501926,77.0825296
7545203156,hospital,Hitaishi Hospital,28.7057013,77.1225618
7545203157,hospital,Dispensary Child Welfare Centre,28.6887375,77.1330548
7545203158,hospital,Vishwakarma Hospital,28.6110344,76.9735825
7545203159,hospital,Airmid Hospital,28.7449013,77.144869
7545203160,hospital,Gahlot Hospital,28.704823,77.043677
7545203161,hospital,Sanjeevani Hospital,28.851102,77.085381
7545203162,hospital,ESI TB Hospital,28.735014,77.1401182
7545203163,hospital,Navjeevan Hospital,28.6948742,77.1088735
7545203164,hospital,Bm Hospital,28.6184538,77.0658712
7545203166,hospital,Delhi Global Hospital,28.7449215,77.1431698
7545203167,hospital,Choudhary Hospital,28.6900075,77.1481284
7545203168,hospital,Narayani Hospital,28.6122422,76.9798637
7545203169,hospital,Sunil Memorial Nursing Home,28.5873313,77.0846422
7545203170,hospital,Sudarshan Hospital,28.845479,77.089664
7545203171,hospital,Saransh Hospital,28.6887151,77.1324657
7545203172,hospital,Jeevandan Hospital,28.6952239,77.0549322
7545203173,hospital,Manipal Hospitals,28.5929199,77.0637613
7545203174,hospital,Sant Soham Hospital,28.7974008,77.033424
7545203175,hospital,Clifton Springs Hospital,28.6005702,76.9885337
7545203176,hospital,Surya Kiran Hospital,28.6138396,76.9923106
7545203177,hospital,Jeevan Daan Hospital,28.698019,77.054191
7545203178,hospital,Ardent Hospital,28.5869919,77.0859526
7545203183,hospital,Dr. Rakesh Multispeciality Hospital,28.8402532,77.0822963
7545203185,hospital,New Heera Hospital,28.6130081,76.9887306
7545203186,hospital,Shanti Mohan Hospital,28.852043,77.082868
7545203188,hospital,Marg Hospital,28.6997775,77.0513459
7545203190,hospital,Dwarka Heart Centre,28.5995579,77.0436777
7545203192,hospital,Kalpavriksh Super Speciality Center,28.5978809,77.0351429
7545203193,hospital,Maujiram Lions Eye Hospital,28.837695,77.1797456
7545203195,hospital,Skylife Multispeciality Hospital,28.7497815,77.1430972
7545203196,hospital,Naturopathy Hospital,28.7272273,77.1431096
7545203198,hospital,Vikas Hospital Private Limited,28.610754,76.980957
7545203199,hospital,City Health Hospital,28.6105806,76.9735567
7545203201,hospital,Shri Sanjivani Hospital,28.6080273,76.9857721
7545203202,hospital,Tyagi Hospital,28.6912301,77.0902773
7545203203,hospital,Ortho Care Hospital,28.613246,76.991315
7545203204,hospital,Avantika Multispeciality Hospital,28.6979066,77.1085167
7545203206,hospital,Aastha Hospital,28.7327628,77.1416494
7545203207,hospital,Shri Multan Sewa Samiti Eye Care Hospital,28.6942651,77.1302581
7545203208,hospital,Ayushman Hospital,28.5881804,77.0596665
7545203209,hospital,Shree Balaji Hospital,28.7985051,77.0352927
7545203212,hospital,Ishan Hospital,28.7336313,77.1397543
7545203213,hospital,City Hospital 42,28.7457338,77.1445171
7545203215,hospital,Aryan Hospital,28.7999135,77.0364781
7545203217,hospital,Vinayak Hospital,28.6985342,77.1870961
7545203218,hospital,Bhagat Chandra Hospital,28.6051867,77.0984624
7545203219,hospital,Aggarwal Nursing Home,28.6766024,77.1804445
7545203220,hospital,Shradha Multi Speciality Hospital,28.856633,77.088436
7545203221,hospital,Rosewood Hospital,28.610136,76.992631
7545203222,hospital,Jackson Hospital & Research Centre,28.7375325,77.121294
7545203223,hospital,Orchid Hospital Maternity and Heart Centre,28.614656,77.0874447
7545203225,hospital,Ekta Hospital,28.74831,77.1405079
7545203226,hospital,O.P. Memorial Hospital,28.6992105,77.0965459
7545203228,hospital,Foji Hospital,28.6133491,76.9760625
7545203229,hospital,Arogya Care,28.6958743,77.0588261
7545203231,hospital,Apaar Nursing Home,28.614442,77.071139
7545203232,hospital,Dwarka Hospital,28.6166831,77.0316366
7545203233,hospital,Savitri Hospital,28.7353344,77.0128194
7545203234,hospital,Bawasher Hospital,28.6742139,77.1761804
7545203235,hospital,Budhho Devi Hospital,28.843007,77.0913617
7545203237,hospital,Kalyani Hospital,28.6132186,76.9876459
7545203238,hospital,Dhanwati Hospital,28.6123667,76.9686781
7545203239,hospital,Janki Hospital,28.6058663,76.987173
7545203241,hospital,Angel Agastya Multi Speciality Hospital,28.5870577,77.0857082
7545203242,hospital,Jay Hospital,28.6085349,76.9861235
7545203244,hospital,Deepan Hospital,28.5300327,77.0848898
7545203246,hospital,Sunrise Hospital,28.730694,77.133406
7545203247,hospital,Sushila Hospital,28.8596954,77.08365
7545203248,hospital,Shiv Jivodaya Janta Hospital,28.844519,77.087491
7545203250,hospital,Dwarka New Born and Child Hospital,28.6194069,77.0291453
7545203252,hospital,Lifeline Hospital,28.5941071,77.0426925
7545203254,hospital,Chander Leela Hospital,28.6186477,77.0623437
7545203255,hospital,K R Gangwal Hospital,28.8576922,77.1070231
7545203257,hospital,Nirmala Hospital,28.6312194,77.0015182
7545203258,hospital,Kukreja Hospital,28.696354,77.053765
7545203260,hospital,New Rohini Hospital,28.6995752,77.0963422
7545203262,hospital,Samarpan Multispeciality Hospital,28.8427173,77.0884491
7545203263,hospital,Sanjevani Hospital,28.6052388,76.9874092
7545203265,hospital,Sanjeevan Surgical Centre,28.6992877,77.0962764
7545203266,hospital,Janta Hospital,28.8416834,77.077561
7545203269,hospital,Nirvana Hospital,28.731172,77.1332663
7590694039,road,Unnamed road,28.6325816,77.3423272
7596695046,road,Unnamed road,28.6324836,77.3398668
7608911776,hospital,Dharam Devi Hospital,28.425512,77.316081
7608911803,hospital,Qrg Hospital,28.4162674,77.3189551
7608911827,hospital,Lala Diwan Chand Charitable Hospital,28.4804539,77.3143648
7610574167,road,Unnamed road,28.4056094,76.9909039
7610591405,road,Unnamed road,28.4050424,76.9898916
7622516718,hospital,Nawal Hospital,28.8718637,77.1202225
7622826267,hospital,St Stephen's Hospital Health Care Facility,28.485499,77.104817
7622826291,hospital,Children Hospital,28.4750562,77.0348668
7622826310,hospital,Gautam Hospital,28.442666,77.008965
7622826344,hospital,Lal Superspeciality Hospital,28.4577794,77.016731
7622826345,hospital,Shri Gobind Hospital,28.4580095,77.0164047
7624464956,school,Kendriya Vidyalaya No.2 Sohna Road,28.43885,77.0291583
7636329586,school,Shaheed Captain Anuj Nayyar Government Boys Senior Secondary School,28.6255941,77.0927024
7730086971,school,Kendriya Vidyalaya,28.5610558,77.1779814
8017536217,school,Unnamed school,28.7117425,77.1189585
8145754251,school,Green View Public School,28.6043448,77.0018985
8151246201,hospital,Government Dispensary,28.6705615,77.1511902
8151246223,hospital,DGD Prem Nagar,28.66261,77.1624729
8151246224,hospital,Kelvin Diagnostics,28.6625223,77.1417334
8151246225,hospital,Gyanchandra Joshi Ayurvedic Hospital,28.662511,77.144284
8151246231,hospital,DR CHOPRAS SPINE JOINT SOLUTIONS INDIA - joint replacement doctor in west Delhi,28.6581639,77.1421631
8151246315,hospital,Guru Ram Dass Charitable Hospital,28.6376807,77.1125936
8151246340,hospital,Arvind Medicare,28.6311711,77.2170294
8151246349,hospital,General Williams Hospital,28.6267808,77.2182706
8266909244,hospital,Max Superspeciality Hospital,28.6346135,77.3330229
8285824220,hospital,DR KAPOOR'S Dental Care and Implant Centre,28.5095465,77.0450085
8478072795,hospital,Unnamed hospital,28.5391557,77.282953
8900495608,school,GOVERNMENT SCHOOL,28.4244248,77.1444826
8916577191,hospital,Sanjay Gandi Hospital,28.6337619,77.1700493
8929282814,school,MCD School,28.6327723,77.2757333
8929322159,school,National Victor Public School,28.631544,77.3118241
8929322160,school,DBSE,28.6307892,77.3121384
8929322161,school,Vivekanand International School,28.6319004,77.3140766
8987572728,hospital,Aggarwal Dharmarth Hospital,28.6812368,77.1976619
9004788596,school,MCD school,28.7330379,77.1286156
9085975699,school,Sarvodaya Kanya Vidyalaya,28.6807221,77.3126495
9085977835,school,Bloomfield Public School,28.6816308,77.3148395
9085982626,school,East Delhi M.C Primary School,28.6787962,77.3088704
9086006380,school,Govt Boys Senior Secondary School,28.6807704,77.3127674
9086030845,school,Greenway Modern School,28.6822842,77.315704
9100588456,school,Unnamed school,28.6589497,77.2359195
9104120006,hospital,Om Prem Charitable Hospital,28.6317452,77.3498755
9104141335,school,Unnamed school,28.6351719,77.3155184
9107468200,school,Rajkiya Sarvodaya Kanya Vidyalaya (Jeeja Bai),28.6147038,77.3194623
9180386814,school,Hans Raj Smarak SR Sec School,28.6815139,77.3179445
9196101613,hospital,"Delhi City, Medical",28.6559519,77.2811441
9221656000,school,Vaidic Public School,28.6224543,77.3112651
9295424879,hospital,Indraprastha Apollo Hospital,28.5408159,77.2835195
9485904214,hospital,SCI IVF Hospital,28.5495245,77.2337844
9536890784,school,Baba Banda Singh Bahadur Memorial Secondary School,28.5217944,77.1816408
9536890793,school,Saint John's School,28.5215056,77.1816816
9554253936,school,Bapu Public School,28.6133314,77.2892876
9565140147,hospital,HAH century hospital,28.5128503,77.2513477
9565144393,school,New Suriya Public school,28.5043828,77.2422016
9602262560,road,Unnamed road,28.6434933,77.1266414
9870316187,hospital,Chaudhary Braham Prakash Ayurvedic Charak Sansthan,28.5721366,76.9336152
9872198149,hospital,Unnamed hospital,28.6134172,76.9951114
9881059821,road,Unnamed road,28.40741,76.9868007
9888994945,road,Harewali Border - 2,28.8391071,77.0207938
9894455513,road,Unnamed road,28.8363282,77.0162684
9964055895,school,S B Public School,28.473313,77.0875482
9964185461,school,Royal Convent School,28.4727485,77.0896041
9969678884,school,The Ardee School,28.5606026,77.2757538
9985453891,hospital,ESI hospital,28.4682563,77.0013092
10049931203,hospital,HOD Karkardooma - House Of Diagnostics,28.6470935,77.3020999
10050566955,hospital,HOD Ashok Vihar - House Of Diagnostics,28.6956326,77.1874885
10050577769,hospital,HOD Rajouri Garden - House Of Diagnostics,28.6484714,77.1204602
10127860587,school,"TCV Day School, Samyeling",28.7018344,77.2277608
10172949256,hospital,al-shifa,28.5570345,77.2929977
10233541932,road,Unnamed road,28.5550296,77.0499417
10263086505,school,New Horizon School,28.5947172,77.2477028
10264783705,hospital,Oncoplus Hospital,28.5697622,77.2267424
10314282871,hospital,SITE,28.5764608,77.0675724
10570198566,school,Native Public School,28.7246014,77.1702275
10576445742,school,Navyug School,28.5872412,77.2165688
10661038354,school,Satyawati Sood Arya Girls senior secondary school,28.5870203,77.2516215
10661039318,school,Nios Study center,28.5871452,77.2514966
10661041562,school,YMCA Public School,28.5872431,77.2511171
10681154094,school,Government Primary School,28.4792729,77.0842019
10706635437,school,Modern Education Public School,28.7305602,77.1633984
10732236605,school,My Play School,28.7072002,77.159657
10741340139,school,Sharda Public School,28.7202814,77.1681427
10750336512,school,Aadyant,28.5324614,77.1498449
10750605659,school,Saint Model Public School,28.7243163,77.1682228
10758831609,school,Arya Hansraj Model School,28.7335313,77.1670311
10760856283,hospital,Vardayani Charitable Multi-Speciality Hospital,28.7221086,77.171616
10760889926,school,Unnamed school,28.7209109,77.1706397
10768316749,hospital,Anand Maya Multi Speciality Hospital,28.7299137,77.1600821
10799185610,school,Madarsa Daruluoom Hamidia,28.7289581,77.1733823
10805073789,school,Darshan Academy,28.6943452,77.1943027
10810651871,hospital,Mahajan Hospital,28.7183028,77.1710383
10823517734,school,Pathways,28.4295661,77.1059569
10836291364,school,Unnamed school,28.7406356,77.1627691
10855344964,hospital,Parnami Orthopaedic Hospital,28.7136327,77.1734502
10866786293,school,Unnamed school,28.7400888,77.1611524
10872788109,school,Unnamed school,28.5947114,77.2476036
10901094701,hospital,Shanti Kumud Hospital,28.7176383,77.1701132
10939545856,school,Unnamed school,28.7551751,77.1631194
10939760633,school,Unnamed school,28.7521862,77.1612643
10945664767,hospital,Guru Harkrishan Polyclinic Bangla Sahib,28.6267693,77.2092035
10956856127,school,Sky Public School,28.7438961,77.1606342
10971399088,school,Unnamed school,28.5471568,77.1986814
10975636818,school,Jingle Bell School,28.7201841,77.1778744
11025053735,school,Aryan Model Public School,28.7466071,77.1611125
11054290005,hospital,ESIC Hospital,28.7273448,77.126818
11080855977,school,Unnamed school,28.727873,77.1707573
11133971705,school,Unnamed school,28.5445054,77.0288535
11205436531,school,Molarband school,28.4945193,77.3260089
11205476274,school,New bal vaishali public school,28.4930183,77.3260786
11211925180,school,Government school,28.4982037,77.3046099
11218263069,school,Adarsh Bal Vidyalaya,28.6304676,77.274201
11218317499,school,Manisha public school,28.6302337,77.2737215
11219349887,school,M C D primary co-ed model school,28.5853022,77.2440823
11225077950,school,Govt girls senior secondary school no . 3,28.4946147,77.3256146
11225078048,school,Sarvodaya bal vidyalaya no. 1,28.4945557,77.3256489
11236738290,school,Einsteins play school,28.6300144,77.2734518
11238406906,hospital,Patel Hospital,28.6308656,77.2783314
11242142952,hospital,JNU Health Centre,28.5495066,77.1676082
11242951123,hospital,Hans Charitable Hospital,28.7002703,77.2083671
11274654303,school,Jamia Milia Islamia School ground,28.5638054,77.2835401
11598703517,hospital,Jain Hospital,28.4284279,77.058622
11684850879,hospital,Marengo Asia Hospitals,28.4153658,77.3189995
11688160111,school,Deshraj public school,28.5116999,77.1076037
11690527372,hospital,KK SURGICAL CENTRE,28.6925868,77.292098
11690556040,hospital,TYGAI DIAGNOSTIC CENTER,28.6913354,77.2913592
11690583075,hospital,INDIAN BAGHEERA VETERINARY HOSPITAL,28.6944964,77.2921256
11690592604,hospital,BHARAT VIKAS PARISHAD(FREE EYE CAMP),28.6885897,77.2917846
11690597440,hospital,MIND BRAIN & MENTAL HOSPITAL,28.6904216,77.2916753
11691646449,hospital,Unnamed hospital,28.7361467,77.2977806
11693517909,hospital,MAHALAKSHMI HOSPITAL,28.6892732,77.2986283
11696904640,hospital,DUKH NIWARAN MEDICAL CENTER,28.6865598,77.2902512
11696928200,school,KENDRIYA VIDYALAYA SHAHDARA,28.6863497,77.2873607
11696942375,school,KV ground,28.5895462,77.3487453
11697169207,hospital,supreme hospital,28.4910033,77.2911674
11697662195,hospital,Unnamed hospital,28.735724,77.2886859
11697708204,school,Mission public school,28.5996273,77.057532
11697720523,hospital,Aakash Hospital,28.6053767,77.0536459
11698041139,school,xtreme tennis academy,28.6037753,77.0512983
11698355649,hospital,Injury Centre,28.6063225,77.0526152
11698562244,hospital,Saroj Medical Institute,28.7340712,77.1390604
11698566020,school,Jinwani public school,28.6000308,77.049833
11698678806,hospital,BR Healthcare Rohini,28.7443866,77.1196309
11750077269,hospital,Unnamed hospital,28.4828162,77.0952619
11769497940,hospital,Verizon Hospital,28.4399865,77.0705
11775278179,hospital,Indian Cancer Institute,28.5483823,77.2419692
11832139988,school,Unnamed school,28.6636,77.2069986
11846242020,school,New Sanik Public School,28.6071489,77.068435
11846843705,road,Unnamed road,28.5511265,77.0535728
11868133252,hospital,Airport Health Organization,28.5445057,77.115956
11883497374,school,Learning Angels Play School,28.5944407,77.1217797
11916134027,hospital,Ravi Nursing Home,28.6172493,77.0305823
11948574088,road,Unnamed road,28.5540791,77.0517632
11982171909,school,G.G.S.S.S. VIVEK VIHAR PHASE 2,28.6696109,77.3073786
11982171911,school,Avinash Chandra Chadha Central Savoday Bal School,28.6696109,77.3073786
11982182430,school,Govt. Boys Secondary School,28.6698721,77.3094983
11982187193,school,Greenway Modern School,28.6699213,77.3090614
11982197671,school,RAJKIYA PRATIBHA VIKAS VIDYALAYA,28.6660091,77.3087445
11982197672,school,DR. B.R. AMBEDKAR SCHOOL OF DPECIALISED EXCELLENCE,28.6658495,77.309429
11982201439,hospital,IndraGandhi ESI HOSPITAL,28.6665679,77.3110943
11982887746,road,Unnamed road,28.6326821,77.342259
11998757236,school,Carmel Convent School,28.6013333,77.1881167
12032854870,school,Arena Animation,28.6419638,77.2963033
12046096383,hospital,Ambedkar Nagar Hospital,28.5223965,77.2383804
12046734569,school,MCD Primary school No. 2,28.5249774,77.2351102
12052451552,hospital,Banwari Lal Charitable Trust Diagnostic Centre,28.6420044,77.2042941
12068110862,hospital,Dr. Himani Yadav,28.4299657,77.0777145
12139303963,school,Government Girl Middle School,28.4277612,77.0664505
12139303964,school,Government Model Sanskriti Primary School,28.4277435,77.0664871
12208726093,school,Hemani Public School,28.5684003,77.2475193
12222312994,school,Lakhi Public School,28.626934,77.2939379
12441108176,hospital,Kasturba Hospital,28.6485447,77.2385223
12464971286,hospital,Under Construction Hospital,28.6336658,77.061634
12511952915,road,Unnamed road,28.578003,77.2102526
12595654412,hospital,parakh hospital,28.6930519,77.3394581
12609739301,hospital,Unnamed hospital,28.4981571,77.1017103
12640918037,school,The Neev School,28.6229288,77.2911355
12647113752,hospital,Apollo Fertility,28.5964346,77.0400311
12687840624,school,Mamta Public School,28.6004549,77.3166492
12698411271,industrial,Cluster Bus Depot Dwarka Sector 22,28.5541847,77.0529077
12704710070,school,Bal Bhavan Public School,28.6187992,77.3025948
12713991910,school,Madrassa Jamia Islamia Latifia,28.6239305,77.2911697
12749811106,school,K.S.K Academy,28.5016344,77.2476048
12753521548,school,L.N. Girdharri Lal,28.6587675,77.2237125
12759219200,school,Durgabai Deshmukh Balwadi,28.692024,77.2115618
12759227365,school,Usha Ganguli Shishu Vihar,28.6921196,77.2116113
12828353062,school,Little Kingdom,28.7059898,77.1228826
12897313095,hospital,Metro Heart Institute,28.5973655,77.33789
12897313097,hospital,Metro Multi-speciality Hospital,28.5974786,77.3358702
12904635255,road,Harewali Mod,28.8185866,77.0027781
12912000024,school,School Entrance,28.8357081,77.0164121
12918591734,school,Asha School Delhi Cantt.,28.6103924,77.1379852
12942220245,school,Modern Green Valley public school,28.4970991,77.2239141
12942263261,school,Surjit Wasu Memorial Charitable school,28.4957034,77.220101
12944092756,school,Experimental Basic School,28.6942624,77.2097821
12944492921,school,Pratibha Vidyalaya,28.5724903,77.2307224
12985396101,hospital,Chandralakshmi Hospital,28.6460547,77.340079
12986009477,hospital,Paras Hospital,28.6471942,77.3446415
12997284965,school,M.S. Tutorial,28.6449294,77.3386733
13061156424,school,Jaishankar Memorial Centre,28.5379491,77.3002293
13062905017,road,Harewali Border,28.8403177,77.0066761
13072249774,school,"Dr B.R. Ambedkar School of Specialised Excellence (ASOSE), IP Extension",28.631551,77.3141765
13072249775,school,"Rajkiya Pratibha Vikas Vidyalaya ,I.P. Extension",28.6315581,77.3144956
13073584691,school,KENDRIYA VIDYALAYA,28.5569422,77.225629
13077719600,hospital,Dr. Shroff Charity Eye Hospital,28.6459381,77.242051
13082006017,school,Government Sarvodaya Bal Vidyalaya,28.6175093,77.3033963
13082006018,school,Government Sarvodaya Kanya Vidyalaya,28.6173633,77.3035273
13110023484,school,Municipal Corporation Primary School,28.6799307,77.2027529
13110159240,school,निगम प्राथमिक विद्यालय,28.6800535,77.2020054
13124497226,school,"Government Model Senior Secondary School, Wazirabad",28.4345697,77.0798032
13124497227,school,"Government Boys Model Sanskriti Primary School, Wazirabad",28.4343321,77.0803974
13131402843,hospital,Medical Room,28.583431,77.1538641
13142482001,school,Bright Future Point,28.5489881,77.2163072
13146450018,school,German school,28.594099,77.1802814
13146724911,industrial,Shershah Cold Storage,28.7140702,77.1720676
13146724914,hospital,Tyagi Hospital,28.7187985,77.1681742
13180535715,school,Cosmos Public School,28.601763,77.3145291
13204264433,school,"Sarvodaya Bal Vidyalaya, Tikri Khurd",28.8335293,77.1283236
13243279487,hospital,Medanta,28.4635254,77.09453
13249259417,road,Unnamed road,28.5701449,77.0404369
13249259422,road,Unnamed road,28.570034,77.0404232
13266921259,school,Pole Star,28.6986861,77.0969816
13334052245,school,AVN International School,28.6994551,77.3352273
13334052247,school,Diamond Bloom Public School,28.6991045,77.3372083
13351079501,school,Unnamed school,28.6139792,77.2840569
13366317301,school,Mac Marvels Montessori,28.6347567,77.2976485
13366619207,hospital,Dr Vipin Maheshwari,28.4317572,77.0723439
13481473075,school,Central Baptist Church Primary school,28.6564137,77.2336847
13508394262,hospital,SRG Speciality Hospital,28.6706849,77.1794945
13536544392,hospital,Malik Radix,28.6353257,77.2881381
13594703526,school,Masoom Special School,28.7069256,77.221249
13594703551,school,Virendra Public School,28.6956505,77.220302
13598309846,school,Holy Angel Public School,28.4975864,77.31833
13633430911,school,Bal Bhavan Public School,28.635347,77.2797632
13664118559,hospital,Shanti Nursing Home,28.6190345,77.2856275
13664462520,hospital,Dr. Batra's Clinic,28.5288731,77.2557006
13665255268,hospital,Shanti Medical Centre,28.619157,77.2855408
13680887201,school,Unnamed school,28.5031578,77.181602
13814205596,school,D.M.G. play school,28.5628266,77.1931482
13816044078,hospital,Ariston Multispeciality Hospital,28.5379869,77.2482605
13823611701,school,Govt. Sarvodaya Bal vidyalaya,28.6543549,77.07325
13823611705,school,MS public school,28.6726466,77.0690139
13823611901,school,HBM PUBLIC SCHOOL,28.6708005,77.0689249
13823614701,school,CRS public school,28.6724869,77.0698692
13887018882,hospital,Dr Sarita Jaiswal,28.6026654,77.3140801
13891280201,hospital,PUSHPANJAL hospital,28.6803024,77.085012
13901365635,road,Unnamed road,28.6940563,77.1508646
13926670492,school,Government Primary School,28.713982,77.2181268
13926801709,school,Sant Nirankari Public School,28.7154208,77.2096575
13926801710,school,Sant Nirankari Sr Sec School Girls and Boys,28.7157137,77.2089194
13930769734,hospital,Sant Nirankari Health City (SNHC),28.7242334,77.2028697
13941652601,school,Marudyan School,28.4619392,77.0047494
13945738977,hospital,Infirmary,28.6414623,77.299997
13947231564,hospital,The Dental Solace,28.4287361,77.0863225
13950434366,hospital,Nulife Multi Specialty Hospital,28.7008293,77.2086357
13996916117,hospital,Center For Sight,28.4262389,77.0592261
13997784676,hospital,Unnamed hospital,28.5683579,77.2171554
13999723370,school,Government Boys Secondary School,28.6821523,77.2041334
14013885968,hospital,Diabetes & Hormone Clinic,28.535271,77.294414
14014082401,school,Kates Pre-School | Play school For Kids in Shalimar Garden,28.6844939,77.3427835
14017751395,hospital,Unnamed hospital,28.5647216,77.2447463
14017793419,hospital,Pristyn Care Elantis,28.5650215,77.2477571
14021844294,hospital,T.R.U.E Hospitals,28.4353786,77.0716733
7891819,school,School of Computional and Integrative Sciences,28.5419137,77.1677984
7892804,road,Unnamed road,28.5508132,77.1294706
22834653,road,Cariappa Marg,28.6008061,77.1381659
24514669,road,Gurudwara Road,28.457877,77.0275777
24530312,road,Mehrauli Gurgaon Road,28.4775971,77.0686191
24563333,road,Sabz Burj Circle,28.5932492,77.2438661
24743265,road,Entry 13,28.4548123,77.0444127
24743266,road,Unnamed road,28.4543529,77.0444738
24743267,road,Exit 15,28.4579361,77.0473985
24743268,road,Unnamed road,28.456672,77.0467067
24743269,road,Exit 16,28.4661839,77.0551751
24743270,road,Entry 14,28.4618836,77.0511723
24744375,road,Unnamed road,28.4615052,77.0513622
24763053,road,Unnamed road,28.4498419,77.0396671
24969781,road,Unnamed road,28.4473521,77.0378947
24969792,road,Entry 12,28.4476548,77.0375688
24973559,road,Delhi-Gurugram Expressway,28.5819302,77.1462878
25105823,road,Unnamed road,28.4933277,77.0843517
25116202,road,Unnamed road,28.464944,77.054655
25457965,road,Mahatma Gandhi Marg,28.574844,77.2621483
25524661,road,Faridabad-Gurgaon Road,28.4388518,77.132211
25524672,road,Mahatma Gandhi Marg,28.565064,77.2401469
25524726,road,Unnamed road,28.4328249,77.0074625
25524727,road,Unnamed road,28.4393537,77.0128971
25524728,road,Unnamed road,28.4472881,77.0277297
25744612,road,Nelson Mandela Marg,28.557001,77.1686934
25878292,road,Delhi-Gurugram Expressway,28.4467378,77.0292678
25878293,road,Delhi-Gurugram Expressway,28.4485997,77.0386472
25878294,road,Delhi-Gurugram Expressway,28.4456617,77.0336023
25878299,road,Delhi-Gurugram Expressway,28.414882,76.9955946
25878300,road,Delhi-Gurugram Expressway,28.4491146,77.0391426
25878301,road,Delhi-Gurugram Expressway,28.4480371,77.038436
25878303,road,Delhi-Gurugram Expressway,28.4563617,77.0460635
25878304,road,Delhi-Gurugram Expressway,28.4545752,77.044573
25878305,road,Delhi-Gurugram Expressway,28.4573284,77.0469949
25878306,road,Delhi-Gurugram Expressway,28.4556491,77.0456031
25878307,road,Delhi-Gurugram Expressway,28.459378,77.0491976
25878308,road,Delhi-Gurugram Expressway,28.4638937,77.0532471
25878311,road,Delhi-Gurugram Expressway,28.4686802,77.0578875
25878313,road,Delhi-Gurugram Expressway,28.4632363,77.0529107
25878314,road,Delhi-Gurugram Expressway,28.4685737,77.0580245
25878315,road,Delhi-Gurugram Expressway,28.4724699,77.0619922
25878316,road,Delhi-Gurugram Expressway,28.4773366,77.0678523
25878318,road,Delhi-Gurugram Expressway,28.4721319,77.0618587
25878319,road,Delhi-Gurugram Expressway,28.4889831,77.0797732
25878320,road,Delhi-Gurugram Expressway,28.4818538,77.0732126
25878323,road,Delhi-Gurugram Expressway,28.4964106,77.0868975
25878325,road,Delhi-Gurugram Expressway,28.4881041,77.07922
25878328,road,Delhi-Gurugram Expressway,28.5059939,77.0950062
25878331,road,Delhi-Gurugram Expressway,28.5192355,77.0964955
26664726,road,Mehrauli Badarpur Road,28.5202496,77.2042083
26664736,road,Unnamed road,28.5189885,77.209638
27035476,industrial,Unnamed industrial,28.4698736,77.0530328
27422278,road,Delhi-Gurugram Expressway,28.4143691,76.994724
27422282,road,Nelson Mandela Marg,28.555437,77.1676597
28123783,road,DND Noida Flyover Ramp,28.5726614,77.3098351
28123791,road,DND Noida Flyover Ramp,28.572126,77.3108649
28208819,industrial,Sector 5,28.588873,77.3216761
28208872,road,Unnamed road,28.5720519,77.3081855
28240487,industrial,Sector 4,28.5835275,77.3230302
28412393,road,Mahatma Gandhi Marg,28.5687748,77.2173671
28412396,road,Mahatma Gandhi Marg,28.569367,77.194825
28412397,road,Mahatma Gandhi Marg,28.5728285,77.1809882
28412404,road,Mahatma Gandhi Marg,28.566008,77.2301954
28534454,road,Rajiv Chowk Underpass,28.4474884,77.032811
28616597,road,Unnamed road,28.5384726,77.1164287
28616600,road,Delhi-Gurugram Expressway,28.5592358,77.1319342
28616601,road,Delhi-Gurugram Expressway,28.5589206,77.1323493
28616604,road,Delhi-Gurugram Expressway,28.5303261,77.1049249
28616605,road,Delhi-Gurugram Expressway,28.5300912,77.103915
28616606,road,Delhi-Gurugram Expressway,28.5164473,77.0948537
28739054,road,Unnamed road,28.5733943,77.3074098
28739056,road,Mehrauli-Gurgaon Road,28.4769791,77.0662659
28739057,road,Mehrauli-Gurgaon Road,28.477329,77.0682905
28739058,road,Mehrauli-Gurgaon Road,28.477179,77.0666104
28746244,road,Mahatma Gandhi Marg,28.5728365,77.1820431
28746245,road,Mahatma Gandhi Marg,28.5697066,77.2044269
28773614,road,Mahatma Gandhi Marg,28.5854178,77.1717889
28773628,road,Cariappa Marg,28.6067994,77.1232045
31059775,road,AIIMS Flyover,28.5696653,77.2093665
31097477,road,Unnamed road,28.568908,77.1337605
31097489,road,Delhi-Gurugram Expressway,28.5759545,77.1433135
31097490,road,Delhi-Gurugram Expressway,28.5814363,77.1452787
31097494,road,Unnamed road,28.568097,77.1260056
31097497,road,Ulan Batar Road,28.5686795,77.1309695
31097502,road,Unnamed road,28.5447015,77.1186225
34404757,hospital,Dr. Ram Manohar Lohia Hospital,28.6260617,77.2007463
34940753,school,Ryan International School,28.5385075,77.1382348
34940768,school,Delhi Public School,28.441745,77.0645962
35310545,road,Najafgarh Daurala Road,28.5724757,76.9476208
35310546,road,Unnamed road,28.5297654,76.9058484
35310547,road,Unnamed road,28.529451,76.9056387
35310548,road,Unnamed road,28.5290451,76.9053818
35310940,road,Unnamed road,28.6145743,76.9813836
35310941,road,Nangloi Road,28.6171425,76.9839516
35310943,road,Najafgarh Nangloi Road,28.6234357,76.9911678
35311044,road,Najafgarh Nangloi Road,28.6449112,77.019227
35311045,road,Najafgarh Nangloi Road,28.6309305,76.9997006
35311164,road,Najafgarh Nangloi Road,28.6661553,77.053492
35311167,road,Nangloi road,28.6620763,77.0494693
35823388,road,Rd. No. 224,28.5948779,77.071741
35823389,road,Dabri Dwarka Road,28.6073411,77.0772879
36326998,road,Bikaji Cama Place Flyover,28.5696272,77.1898176
36326999,road,Mahatma Gandhi Marg,28.5695095,77.1948095
36805834,road,Unnamed road,28.6065636,77.1231019
37683065,road,Unnamed road,28.5795354,77.269497
37751252,road,Nelson Mandela Marg,28.540169,77.1563376
37751254,road,Mahatma Gandhi Marg,28.5722382,77.2582032
37751255,road,Mahatma Gandhi Marg,28.5718018,77.2571417
38106806,hospital,Neelkanth Hospital Pvt. Ltd,28.483357,77.107626
38133451,road,Sohna Road,28.4585807,77.0271126
38170365,hospital,Fortis Hospital,28.5192884,77.160342
39013511,road,Mathura Road,28.5900174,77.2458771
39013514,road,Unnamed road,28.5724546,77.2587922
39013515,road,Unnamed road,28.5719439,77.2582536
39013516,road,Unnamed road,28.572526,77.2578504
39013517,road,Unnamed road,28.5729335,77.2584122
39013518,road,Ashram Railway Flyover,28.5704696,77.2553592
39013520,road,Ashram Railway Flyover,28.5706809,77.2557691
39013521,road,Ashram Railway Flyover,28.5693155,77.2542689
39013522,road,Ashram Flyover,28.5759836,77.2634122
39013523,road,Mahatma Gandhi Marg,28.5759883,77.2633939
39013524,road,Ashram Flyover,28.5727162,77.2587731
39013525,road,Mahatma Gandhi Marg,28.5714287,77.2569204
39452771,road,Unnamed road,28.5942861,77.0721827
39452774,road,Unnamed road,28.5952101,77.0725612
40102594,road,Delhi-Dehradun Expressway,28.6380961,77.2695389
40138011,road,Mahipalpur Flyover,28.5461109,77.123319
40138012,road,Unnamed road,28.540197,77.1164657
40837967,school,Mata Sukhdevi Public School,28.7750484,77.1423401
42310648,school,iDiscovery School,28.4304958,77.0568076
42807043,school,SD Adarsh Vidyalaya,28.4223049,77.0399589
43316275,school,Modern School,28.5623892,77.1571419
43316796,school,Government Boys Senior Secondary School,28.5342679,77.2125141
43359324,road,Mahatma Gandhi Marg,28.5695383,77.2105454
43361906,school,The British School,28.5974914,77.1802865
44091823,school,The Mother's International School,28.5403284,77.2018505
44091868,school,Mother's International School,28.5403386,77.2020201
44315437,road,Raj Nagar Flyover,28.5696757,77.1993586
44315438,road,Raj Nagar Flyover,28.5697695,77.1994801
44315439,road,AIIMS Flyover,28.5701516,77.207662
44315440,road,Unnamed road,28.5710912,77.2097064
44315442,road,AIIMS Flyover,28.5697541,77.2077644
44315443,road,Unnamed road,28.56982,77.209592
44315448,road,Unnamed road,28.569652,77.206974
44315449,road,AIIMS Flyover,28.5692547,77.2094025
44315450,road,AIIMS Flyover,28.5691687,77.2092628
44315451,road,Mahatma Gandhi Marg,28.5695404,77.2041937
44315452,road,Unnamed road,28.5687261,77.2070987
44315455,road,AIIMS Flyover,28.5704639,77.2090318
44315456,road,AIIMS Flyover,28.5705522,77.2090963
44315457,road,Unnamed road,28.5707789,77.2082268
44316338,road,Moolchand Underpass,28.5654752,77.2340913
44316339,road,Moolchand Underpass,28.5653936,77.234079
44316340,road,Unnamed road,28.5658629,77.2338192
44316341,road,Mahatma Gandhi Marg,28.5657385,77.2324285
44316342,road,Mahatma Gandhi Marg,28.5653456,77.2334708
44316343,road,Mahatma Gandhi Marg,28.5684489,77.2236924
44316344,road,Mahatma Gandhi Marg,28.5669044,77.2274307
44316345,road,South Extension Flyover,28.5676958,77.2255783
44316346,road,Mahatma Gandhi Marg,28.5661499,77.2301845
44316347,road,Unnamed road,28.5650338,77.2333199
44316348,hospital,Moolchand Khairati Ram Hospital,28.5666901,77.2355355
44316351,road,Unnamed road,28.565996,77.2347398
44316352,road,Unnamed road,28.5651105,77.2345193
44317039,road,Ashram Railway Flyover,28.5692745,77.2541062
44317045,road,Mahatma Gandhi Marg,28.5656461,77.2484032
44317048,road,Unnamed road,28.58032,77.2692525
44317049,road,Mahatma Gandhi Marg,28.5803907,77.2693201
44317050,road,Unnamed road,28.5812064,77.2699683
44317051,road,Unnamed road,28.5810441,77.2673225
44317052,road,Mahatma Gandhi Marg,28.5792328,77.2699504
44317158,road,Moti Bagh Flyover,28.5782077,77.1761778
44317159,road,Moti Bagh Flyover,28.5781124,77.1763825
44350312,industrial,Unnamed industrial,28.4560139,77.0064114
44822962,road,Unnamed road,28.6725704,77.2804702
45734464,road,Mehrauli Badarpur Road,28.5126249,77.2431708
45734465,road,Mehrauli Badarpur Road,28.5127102,77.242613
45769377,school,Amity Global School,28.434047,77.0630595
47026629,school,St. Mathews Public School,28.6740659,77.1067938
47107935,school,Indraprasta School,28.6735906,77.1028588
47290483,road,Rd. No. 224,28.5990406,77.0711591
47290485,road,Dwarka-Palam Road,28.568631,77.1251085
47290486,road,Dwarka Flyover,28.5916685,77.0809634
47290489,road,Dwarka Flyover,28.5864543,77.0879078
47290491,road,Dwarka-Palam Road,28.5789909,77.1039406
47290494,road,Dwarka-Palam Road,28.5790755,77.1039765
47290501,road,Yakshini Chowk Underpass,28.5717078,77.1215294
47418857,school,Unnamed school,28.4623239,76.990922
58472992,school,Shaadi mandap,28.648339,77.0420859
58763912,hospital,Bensups Hospital,28.5926773,77.0440717
58765809,school,Rotary Public School,28.5018638,77.062301
59035939,road,Dwarka Flyover,28.5931099,77.0786761
59339757,hospital,Sheetla Hospital And Eye Institute Private Ltd,28.4680581,77.0255218
60882614,road,Auchandi Border Road,28.8020602,77.0317631
60882617,school,Unnamed school,28.795208,77.0379536
60882632,road,Bawana Road,28.7988633,77.0352445
61430851,road,AIIMS Flyover,28.56916,77.210777
63522273,hospital,Batra Hospital,28.5139239,77.245588
66205248,road,DND Noida Flyover Ramp,28.5724778,77.3099828
66205249,road,Unnamed road,28.5649455,77.3165149
66205250,road,Maharaja Agrasen Marg,28.5657032,77.3197292
66205251,road,Unnamed road,28.5655477,77.3197594
66205260,road,DND Noida Flyover Ramp,28.5733478,77.3100225
66205266,road,Maharaja Agrasen Marg,28.5663745,77.3217613
66205268,road,Maharaja Agrasen Marg,28.5654434,77.3191507
66205269,road,DND Noida Flyover,28.5723782,77.3095186
66205284,road,DND Flyway,28.5728185,77.3074132
68789829,school,Amity School,28.555807,77.3295694
69665341,school,Unnamed school,28.5729657,77.3327812
69969739,road,Unnamed road,28.5720261,77.3295509
69979616,school,Cambridge International School,28.5739015,77.3300828
69979618,school,Cambrige School,28.5724141,77.328134
69995778,school,Unnamed school,28.5821128,77.3403526
69995821,school,Delhi Public School,28.5746252,77.336602
70214078,road,Nityanand Marg,28.6688803,77.2276617
70214098,road,Nityanand Marg,28.6673898,77.219143
70220643,road,Vikas Marg,28.634105,77.2830369
70255387,road,Vikas Marg,28.6281526,77.2563634
70255388,road,Vikas Marg,28.6281209,77.2510656
70255391,road,Vikas Marg,28.6281281,77.2518726
70255398,road,Vikas Marg,28.6281357,77.2527627
70255407,road,Vikas Marg,28.6282363,77.268676
70258954,road,Mahatma Gandhi Marg,28.5891781,77.2584787
70258955,road,Mahatma Gandhi Marg,28.5863236,77.2596834
70258963,road,Mahatma Gandhi Marg,28.5912472,77.2580971
70258964,road,Unnamed road,28.5982989,77.2557162
70258965,road,Mahatma Gandhi Marg,28.5795199,77.2663308
70521056,school,Unnamed school,28.5828612,77.3282555
70521288,school,Bal Bharti Public School,28.5853451,77.3372966
70534891,industrial,AMPM Fashions Private Limited,28.5903783,77.3322077
70534913,industrial,Ansumiti Technosoft Pvt Ltd,28.5807818,77.318855
70534966,industrial,Sector 9,28.5868583,77.3273927
70705833,school,Kendriya Vidyalaya,28.5895184,77.3492078
71209191,school,Somerville School,28.5946211,77.3495669
71215837,school,Unnamed school,28.5954445,77.3416627
71215972,school,Unnamed school,28.5948649,77.3353407
71215974,school,Unnamed school,28.5917362,77.3362137
71221208,school,Modern School,28.599699,77.3366528
71221209,industrial,Sector 11,28.5987051,77.3346276
71221233,school,Unnamed school,28.600426,77.3399586
71295897,industrial,Sector 8,28.5944591,77.3265003
71297383,industrial,Sector 7,28.5950136,77.3165751
71435173,road,DND Flyway,28.5798349,77.299316
71435176,industrial,Sector 2,28.5849574,77.315235
71435182,road,DND Flyway,28.5799538,77.2993594
71435185,road,DND Flyway,28.5794901,77.2957592
71435200,road,DND Flyway,28.5784161,77.3012846
71444961,industrial,Sector 1,28.5903643,77.3123914
71621522,school,Unnamed school,28.6018495,77.342921
71621578,school,Unnamed school,28.6043674,77.3444521
72002966,road,Delhi - Meerut Expressway,28.630243,77.3262299
72002968,road,Delhi - Meerut Expressway,28.5986835,77.2565496
72002972,road,Delhi - Meerut Expressway,28.6323365,77.3377533
72002980,road,Delhi - Meerut Expressway,28.6322496,77.3328584
72002996,road,Delhi - Meerut Expressway,28.6287922,77.3221986
72003012,road,Delhi - Meerut Expressway,28.6324913,77.337803
72004862,industrial,Unnamed industrial,28.6511075,77.3299054
74168430,industrial,Unnamed industrial,28.6554478,77.335979
76700057,industrial,Unnamed industrial,28.6550939,77.3269787
76702389,road,Swami Dayanand Marg,28.636425,77.314293
76727403,road,Road Number 57,28.6361197,77.3108257
76727472,road,Road Number 57,28.6364022,77.3139001
76727604,road,Road Number 57,28.6363153,77.3139041
76733233,road,Karkari Mor Flyover,28.6410977,77.3014065
76733238,road,Karkari Mor Flyover,28.6441315,77.2987646
76733280,road,Road Number 57,28.6612479,77.286719
76733286,road,Karkari Mor Flyover,28.644109,77.2986663
76734524,school,Sarvodaya Kanya Vidyalaya,28.6312165,77.2973919
76834866,road,Delhi - Meerut Expressway,28.5989612,77.2587593
76834872,road,Delhi - Meerut Expressway,28.6194474,77.2936787
76834874,road,Unnamed road,28.6111964,77.2848226
76834878,road,Delhi - Meerut Expressway,28.6012008,77.2631195
76834883,road,Delhi - Meerut Expressway,28.6207652,77.2976316
76834884,road,Delhi - Meerut Expressway,28.6124526,77.2822504
76834891,road,Delhi - Meerut Expressway,28.6008939,77.2631698
76834893,road,Delhi - Meerut Expressway,28.6206449,77.2976944
76834898,road,Delhi - Meerut Expressway,28.6036569,77.268555
76834905,road,Delhi - Meerut Expressway,28.6171804,77.2875343
76834909,road,Delhi - Meerut Expressway,28.6230806,77.3044628
76842646,road,Delhi - Meerut Expressway,28.6245863,77.3089092
76842647,road,Delhi - Meerut Expressway,28.6244544,77.3089836
76842648,road,Delhi - Meerut Expressway,28.6229444,77.3045273
76842649,road,Delhi - Meerut Expressway,28.6258257,77.3127175
76849181,road,Swami Dayanand Marg,28.6384761,77.3037789
76849193,industrial,Unnamed industrial,28.6207551,77.3009568
76849195,road,DND Flyway,28.5777719,77.2895045
76849232,road,Swami Dayanand Marg,28.6401721,77.3022195
76849246,school,Unnamed school,28.6185682,77.3027362
76849269,road,Swami Dayanand Marg,28.6401126,77.3021504
76849306,road,DND Flyway,28.5776162,77.2896037
76849332,road,Swami Dayanand Marg,28.640403,77.3018925
76849392,school,Unnamed school,28.6173882,77.3033654
76849406,school,Unnamed school,28.6093408,77.3116044
76849415,road,DND Flyway,28.5796368,77.2957373
76849496,road,Delhi - Meerut Expressway,28.6273623,77.3174055
76965008,school,Unnamed school,28.6180931,77.3149253
76965009,school,Government primary school,28.617946,77.3086562
76965030,school,Unnamed school,28.6146387,77.3134856
76965083,school,Unnamed school,28.6153272,77.3157891
76977269,school,Unnamed school,28.6228233,77.3075816
76977318,school,Unnamed school,28.6191174,77.3185833
76977577,school,Unnamed school,28.6246317,77.3171186
76977620,school,Unnamed school,28.6217877,77.3175462
76995143,school,Unnamed school,28.6081156,77.3138149
77001172,school,Unnamed school,28.6016805,77.3059001
77001246,school,Sharda Sen Rajkiya Kanya Sarvodaya Vidyalaya,28.6052001,77.307694
77001373,industrial,M.E.A. Stores,28.6010841,77.3011768
77001396,school,Unnamed school,28.6047171,77.3061555
77004707,school,Govt Co - Ed Senior Secondary School,28.6000527,77.2938546
77007463,school,Unnamed school,28.6098505,77.3021961
77015779,road,Jangpura Road Flyover,28.5787539,77.2535745
77015802,road,Jangpura Road Flyover,28.57981,77.2526836
77015815,road,Jangpura Road Flyover,28.5817577,77.251702
77015834,road,Jangpura Road Flyover,28.5798452,77.2527641
77339655,road,Mathura Road,28.584713,77.2497888
77339656,road,Mathura Road,28.5899328,77.2456019
77339657,road,Mathura Road,28.5867495,77.2478868
77339658,road,Mathura Road,28.5867592,77.248014
77349457,road,Jangpura Road Flyover,28.5772448,77.2545875
77349469,road,Mahatma Gandhi Marg,28.5820256,77.2655529
77349473,road,Modi Mill Flyover,28.5561687,77.2679604
77349475,road,Jangpura Road Flyover,28.5773962,77.2545945
77349483,road,Mahatma Gandhi Marg,28.5830801,77.2636497
77349484,road,Outer Ring Road,28.5534038,77.2650787
77349488,road,Mathura Road,28.57368,77.2575091
77349489,road,Mahatma Gandhi Marg,28.585152,77.2612367
77349510,road,Mahatma Gandhi Marg,28.5832314,77.2638472
77349531,road,Jangpura Road Flyover,28.577793,77.2541846
77355797,road,Outer Ring Road,28.5491518,77.2610734
77355798,road,Kalkaji Flyover,28.5487575,77.260138
77355803,road,Kalkaji Flyover,28.5501488,77.2622838
77363921,road,Unnamed road,28.5703258,77.1343587
77363924,road,Khelgaon Flyover,28.5435046,77.2092381
77363925,road,Outer Ring Road,28.5436475,77.2442167
77363928,road,IIT Flyover,28.5446002,77.2012656
77363930,road,Unnamed road,28.5757178,77.1439498
77363931,road,Ho Chi Minh Marg,28.5423165,77.22317
77363934,road,Chirag Delhi Flyover,28.5412677,77.2315939
77363936,road,Rao Tula Ram Marg,28.573908,77.1549246
77363937,road,Nehru Place Flyover,28.546563,77.2515851
77363938,road,Yakshini Chowk Underpass,28.5735801,77.1209266
77363939,road,Nehru Place Flyover,28.5456174,77.2491505
77363941,road,Ho Chi Minh Marg,28.5408259,77.2363473
77363942,road,Chirag Delhi Flyover,28.5413504,77.2316341
77363943,road,Outer Ring Road,28.5452241,77.2485435
77363948,road,Ho Chi Minh Marg,28.5410497,77.236755
77363957,road,Unnamed road,28.572551,77.1389168
77363963,road,Savitri Flyover,28.5419818,77.2398243
77363966,road,Unnamed road,28.5698234,77.134376
77363968,road,Ho Chi Minh Marg,28.5432238,77.2106759
77363969,road,Unnamed road,28.5711371,77.1357124
77363974,road,Ho Chi Minh Marg,28.5415681,77.2302933
77363979,road,Yakshini Chowk Underpass,28.5717158,77.121639
77363988,road,Unnamed road,28.5775871,77.1439259
77363989,road,Nehru Place Flyover,28.545532,77.2491857
77363992,road,Yakshini Chowk Underpass,28.5736327,77.1210079
77363993,road,Unnamed road,28.5437747,77.206403
77363994,road,IIT Flyover,28.5446789,77.2012958
77363995,road,Unnamed road,28.5419722,77.2320522
77363998,road,Unnamed road,28.5750389,77.1432774
77364005,road,Ho Chi Minh Marg,28.5419121,77.229562
77364007,road,Ulan Batar Road,28.5689497,77.1312724
77364010,road,Unnamed road,28.5687304,77.1345108
77364011,road,Outer Ring Road,28.5454035,77.2484554
77364013,road,Rao Tula Ram Marg,28.5740786,77.1529616
77364016,road,Khelgaon Flyover,28.5434066,77.2092182
77364020,road,Unnamed road,28.5412918,77.2316808
77364024,road,Khelgaon Flyover,28.5432752,77.2120618
77364025,road,Unnamed road,28.5751406,77.1460836
77364029,road,Khelgaon Flyover,28.5436367,77.2064367
77364030,road,Unnamed road,28.5677898,77.1310433
77617192,road,Unnamed road,28.6679257,77.2238524
77629868,road,Azadpur Flyover,28.7085466,77.1746816
77629874,road,Azadpur Flyover,28.7104058,77.1770308
77629878,road,Mahatma Gandhi Marg,28.6971182,77.2095117
77629881,road,Mahatma Gandhi Marg,28.7012574,77.1978242
77629887,road,Mall Road,28.6994916,77.2031001
77629890,road,Arihant Marg,28.7175321,77.1808547
77629892,road,Mahatma Gandhi Road,28.7078914,77.1740054
77629895,road,Mahatma Gandhi Marg,28.7076985,77.1790828
77629896,road,Shalimar Bagh Flyover,28.7030187,77.1657972
77629899,road,Mahatma Gandhi Road,28.7074163,77.1736162
77629903,road,Mahatma Gandhi Marg,28.6987828,77.2045899
77629911,road,Mahatma Gandhi Road,28.6924232,77.2208007
77629925,road,Mahatma Gandhi Road,28.7071994,77.1735975
77629928,road,Azadpur Flyover,28.7104478,77.1769525
77629932,road,Mahatma Gandhi Marg,28.6971534,77.2090451
77629937,road,Mahatma Gandhi Marg,28.6953881,77.214125
77629944,road,Mahatma Gandhi Marg,28.6946569,77.215533
77629953,road,Mahatma Gandhi Marg,28.5929479,77.1671435
77643332,road,Unnamed road,28.6925646,77.1004152
77643337,road,Unnamed road,28.7030816,77.1297588
77643345,road,Outer Ring Road,28.6821028,77.0951507
77643347,road,Unnamed road,28.7040203,77.1314644
77643370,road,Outer Ring Road,28.6977563,77.1186167
77643373,road,Outer Ring Road,28.6495996,77.0864052
77643376,road,Outer Ring Road,28.6965787,77.1134476
77643378,road,Unnamed road,28.7423947,77.1065707
77643380,road,Outer Ring Road,28.6354942,77.0808197
77643383,road,Outer Ring Road,28.6795521,77.0947117
77643387,road,Unnamed road,28.7043446,77.1310048
77643393,road,Panjabi bagh Underpass,28.6739202,77.138084
77643410,road,Outer Ring Road,28.6745341,77.0937115
77643412,road,Outer Ring Road,28.6821299,77.0950332
77643417,road,Bhera Enclave Underpass,28.6692095,77.0928306
77643418,road,Unnamed road,28.7036445,77.1311783
77643427,road,Outer Ring Road,28.67675,77.0942245
77643435,road,Outer Ring Road,28.6886657,77.0964555
77643436,road,Unnamed road,28.6927011,77.10079
77643444,road,Bhera Enclave Underpass,28.6691896,77.0929701
77643448,road,Outer Ring Road,28.6677764,77.0924854
77643454,road,Outer Ring Road,28.6709749,77.0933552
77643459,road,Outer Ring Road,28.6795819,77.0945961
77643474,road,Unnamed road,28.7041452,77.1308444
77645945,road,Shivaji Marg,28.6282637,77.073832
77727870,school,Maharaja Agrasen Model School,28.7046345,77.1377936
77743762,road,Unnamed road,28.6972143,77.1566156
77743763,road,Unnamed road,28.6969942,77.155862
77743784,road,Prembari Underpass,28.6976363,77.1562411
77743786,road,Unnamed road,28.6978455,77.1573336
77743787,road,Prembari Underpass,28.6991471,77.1569747
77743791,road,Unnamed road,28.6993833,77.1565754
77743792,road,Mahatma Gandhi Road,28.6997602,77.1578796
77743793,road,Unnamed road,28.6992508,77.1572594
77743815,road,Mahatma Gandhi Road,28.6883624,77.1512753
77743816,road,Unnamed road,28.6975299,77.1563593
77743820,road,Prembari Underpass,28.698428,77.1567206
77743823,road,Prembari Underpass,28.6985021,77.1566572
77743827,road,Unnamed road,28.6994313,77.1571211
77743837,road,Unnamed road,28.6992712,77.1569044
77743846,road,Unnamed road,28.6989728,77.1571151
77743854,road,Prembari Underpass,28.699038,77.1570354
77743866,road,Unnamed road,28.6991748,77.1569542
77743867,road,Prembari Underpass,28.6976148,77.1563239
77759935,road,Lala Jagat Narayan marg,28.6936694,77.1521919
77759984,road,Unnamed road,28.6929968,77.1523963
77766225,road,Punjabi Bagh Chowk,28.6737583,77.1402494
77766227,road,Shri Hans Maharaj Flyover,28.6761332,77.1407743
77766230,road,Shri Hans Maharaj Flyover,28.6733745,77.1397728
77766231,road,Ring Road,28.6679259,77.1363353
77766233,road,Panjabi bagh Underpass,28.6737815,77.140087
77766235,road,Mahatma Gandhi Road,28.6892771,77.1515426
77766236,road,Ch Brahm Prakash Flyover,28.6829659,77.1461161
77766237,road,Ch Brahm Prakash Flyover,28.6830425,77.1460603
77766238,road,Ring Road,28.6713543,77.1385845
77766239,road,Rohtak Road,28.6736259,77.1420432
77766240,road,Panjabi bagh Underpass,28.6736794,77.1400735
77766241,road,Rohtak Road,28.6741114,77.1381222
77766246,road,Unnamed road,28.6694975,77.1380519
77766247,road,Shri Hans Maharaj Flyover,28.673348,77.1398856
77766249,road,Mahatma Gandhi Road,28.6801279,77.142516
77766250,road,Rohtak Road,28.6738504,77.1381368
77766251,road,Shri Hans Maharaj Flyover,28.6761117,77.1408906
77766252,road,Mahatma Gandhi Road,28.6800737,77.1426078
77766255,road,Rohtak Road,28.6725866,77.1489804
77766256,road,Shri Hans Maharaj Flyover,28.6704903,77.1386677
77766259,road,Rohtak Road,28.6768305,77.1164696
77766263,road,Ring Road,28.675583,77.1408043
77766264,road,Mahatma Gandhi Road,28.6788618,77.1416018
77766265,road,Rohtak Road,28.6733339,77.1419252
77766266,road,Ring Road,28.6756192,77.1405498
77766268,road,Mahatma Gandhi Road,28.6788345,77.1417317
77769941,road,Rohtak Road,28.6724354,77.1489239
77769955,road,Zakhira Flyover,28.6704091,77.1605826
77769985,road,Rohtak Road,28.6710806,77.1578084
77769991,road,Rohtak Road,28.6708983,77.1592514
77769996,road,New Rohtak Road,28.6614779,77.1856716
77770030,road,Zakhira Flyover,28.6679755,77.1675365
77770032,road,Rohtak Road,28.6711878,77.1578599
77770036,road,Zakhira Flyover,28.667885,77.1674773
77860385,road,Raja Garden Flyover,28.6536077,77.1245066
77860386,road,Unnamed road,28.664797,77.1321326
77860387,road,Unnamed road,28.6687514,77.1369736
77860389,road,Mahatma Gandhi Marg,28.6688164,77.1369186
77860394,road,Unnamed road,28.6674763,77.1354708
77860395,road,Raja Garden Flyover,28.652028,77.1256254
77860396,road,Club Road Flyover,28.6583607,77.1284373
77860398,road,Raja Garden Flyover,28.6538738,77.1255253
77860399,road,Club Road Flyover,28.6638543,77.1312039
77860401,road,Moti Nagar Flyover,28.6679829,77.1362136
77860402,road,Club Road Flyover,28.65848,77.1283492
77860404,road,Unnamed road,28.6573579,77.1272077
77860406,road,Raja Garden Flyover,28.6522222,77.1244491
77860407,road,Mahatma Gandhi Marg,28.6437876,77.1276776
77860408,road,Mahatma Gandhi Road,28.6609044,77.1293465
77860409,road,Mahatma Gandhi Marg,28.664703,77.1323995
77860410,road,Raja Garden Flyover,28.6517729,77.124348
77860411,road,Raja Garden Flyover,28.6530477,77.1239744
77860412,road,Club Road Flyover,28.6614038,77.1299285
77860419,road,Mahatma Gandhi Road,28.6609105,77.1292189
77862360,road,Mahatma Gandhi Marg Bridge,28.6310475,77.1325302
77862374,road,Mahatma Gandhi Marg Bridge,28.6320343,77.1320123
77862377,road,Mahatma Gandhi Marg,28.6125248,77.1382629
77862381,road,Naraina flyover,28.6219544,77.1352004
77862391,road,Naraina flyover,28.6288884,77.1332424
77862392,road,Mahatma Gandhi Marg,28.6368565,77.1302701
77862398,road,Mahatma Gandhi Marg,28.6368419,77.130196
77862399,road,Naraina flyover,28.6219377,77.1350932
77862400,road,Mahatma Gandhi Marg Bridge,28.6315101,77.1323486
77862405,road,Mahatma Gandhi Marg,28.6330769,77.1317162
77862407,road,Mahatma Gandhi Marg,28.6104342,77.1389669
77862409,road,Mahatma Gandhi Marg Bridge,28.6314327,77.1322496
77862411,road,Mahatma Gandhi Marg,28.6438896,77.1274985
77868599,road,Mahatma Gandhi Marg,28.5843434,77.1727304
77868646,road,Unnamed road,28.5935177,77.1667583
77868686,road,Unnamed road,28.5982258,77.1639434
77881950,road,Mahatma Gandhi Marg,28.7072575,77.1786523
